stop_id,stop_name,stop_lat,stop_lon
0000145,"Leipzig, Arcus Park",51.361559,12.446591
0000152,"Leipzig, Bergstr.",51.340545,12.402030
0000154,"Leipzig, Breitscheidhof",51.351856,12.286928
0000163,"Leipzig, Bremer Str.",51.376188,12.365049
0000164,"Leipzig, Dankwartstr.",51.299198,12.392830
0000165,"Leipzig, S-Bahnhof MDR",51.320862,12.385920
0000170,"Leipzig, Erich-Zeigner-Allee",51.327144,12.337830
0000192,"Leipzig, Goetheplatz",51.355442,12.286984
0000223,"Leipzig, Gröpplerstr.",51.334249,12.314691
0000243,"Leipzig, Lindenau, Nathanaelkirche",51.339071,12.332668
0000486,"Leipzig, Lise-Meitner-Str.",51.355189,12.305563
0000613,"Leipzig, Louis-Fürnberg-Str.",51.348694,12.430289
0000688,"Leipzig, Morgensternstr.",51.335064,12.311980
0000689,"Oebles-Schlechtewitz",51.258391,12.060557
0000690,"Roßbach, Kirche",51.260490,11.894440
0000692,"Bad Dürrenberg, Markt",51.301842,12.070306
0000693,"Leipzig, Reinhardtstr.",51.346756,12.430130
0000694,"Leipzig, Rosmarinweg",51.346087,12.428127
0000695,"Leipzig, Schleußig, Karlbrücke",51.326096,12.340538
0000696,"Leipzig, Schwantesstr.",51.353775,12.430253
0000697,"Leipzig, Stünz",51.339657,12.433031
0000698,"Leipzig, Taubestr.",51.357431,12.411310
0000700,"Bad Dürrenberg, Breite Str.",51.297972,12.069746
0000702,"Leipzig, Wilhelm-Winkler-Str.",51.354192,12.289235
0000703,"Leipzig, Zittauer Str.",51.356110,12.409130
0000704,"Leipzig, Zweenfurther Str.",51.340227,12.431408
0000705,"Leipzig, Cunnersdorfer Str.",51.342100,12.429768
0000707,"Zschernitz, Fasanerie",51.524494,12.217589
0000710,"Löbnitz (b. Delitzsch), Mühle",51.586803,12.463703
0000712,"Portitz (Leipzig), Schule",51.386158,12.455541
0000714,"Weißenfels, Lassalleweg III",51.214887,11.992989
0000715,"Weißenfels, Am Klemmberg",51.200818,11.982015
0000718,"Pobles (Muschwitz)",51.201659,12.107442
0000719,"Trebnitz (b. Zeitz), Ort",51.095473,12.066841
0000720,"Borau (Weißenfels)",51.199522,12.006633
0000722,"Teuchern, Busbahnhof",51.121046,12.025775
0000724,"Lobitzsch (Uichteritz)",51.194986,11.906542
0000725,"Goseck, Bergschlößchen",51.193576,11.872669
0000726,"Kößlitz-Wiedebach (Langendorf)",51.171611,11.974723
0000727,"Hohenmölsen, Busbahnhof",51.154283,12.102025
0000728,"Lützen, Gedenkstätte",51.268193,12.157225
0000729,"Meuchen, Ort (Lützen)",51.247375,12.174923
0000730,"Söhesten (Muschwitz)",51.190306,12.131933
0000733,"Poserna, Ort",51.214396,12.082474
0000734,"Lösau, Bad Dürrenberger Str. (Dehlitz)",51.225209,12.032049
0000736,"Röcken",51.240845,12.117548
0000737,"Rippach, Schule",51.226048,12.075349
0000738,"Sössen, Ort",51.215725,12.103924
0000739,"Starsiedel",51.217383,12.140830
0000740,"Kölzen (Starsiedel)",51.213235,12.120820
0000741,"Großgörschen, Schule",51.215483,12.181818
0000742,"Lützen, Schule",51.255683,12.140648
0000743,"Langendorf (b. Weißenfels), Hochheimweg",51.184424,11.961943
0000744,"Weißenfels, Südring I",51.189872,11.962708
0000745,"Weißenfels, Südring II",51.190821,11.968177
0000746,"Leißling, Ort",51.181949,11.907624
0000747,"Weißenfels, Moritz-Hill-Str.",51.197978,11.945798
0000748,"Weißenfels, Goethe-Gymnasium",51.199374,11.966652
0000749,"Weißenfels, Lassalleweg II",51.211129,11.993346
0000751,"Weißenfels, Damaschkestr.",51.192823,11.973614
0000752,"Weißenfels, Friedhof",51.195935,11.972126
0000753,"Weißenfels, Rudolf-Diesel-Str.",51.187759,11.980370
0000754,"Weißenfels, Nikolaus-Otto-Str.",51.186879,11.989155
0000755,"Weißenfels, Kaserne",51.193568,11.985639
0000756,"Weißenfels, Alfred-Junge-Str. I",51.200422,11.986942
0000757,"Weißenfels, Alfred-Junge-Str. II",51.203548,11.987416
0000759,"Weißenfels, John-Scheer-Weg",51.212443,11.986231
0000761,"Weißenfels, Otto-Schlag-Str.",51.192016,11.981633
0000762,"Weißenfels, Deutsches Rotes Kreuz",51.200865,11.958905
0000763,"Weißenfels, Beuditzstr. I",51.198980,11.947064
0000764,"Weißenfels, Max-Lingner-Str.",51.200128,11.938951
0000765,"Weißenfels, Mozartstr.",51.199016,11.948125
0000766,"Weißenfels, Kirschweg",51.196776,11.952075
0000767,"Weißenfels, Krankenhaus",51.195381,11.957108
0000768,"Weißenfels, Stadion",51.199896,11.958485
0000769,"Weißenfels, Käthe-Kollwitz-Str.",51.190547,11.975786
0000770,"Weißenfels, Leopold-Kell-Str.",51.201086,11.965474
0000771,"Weißenfels, Heuweg Park",51.219096,11.967921
0000772,"Weißenfels, Heuweg/Kiosk",51.215252,11.963851
0000773,"Weißenfels, Saalstr.",51.199627,11.969101
0000779,"Querfurt, Bahnhof",51.386998,11.604783
0000780,"Spielberg, Abzweig (Grockstädt)",51.319322,11.576970
0000782,"Querfurt, Roßplatz bzw. Grundschule",51.381590,11.600927
0000784,"Weißenfels, Busbahnhof",51.202914,11.971703
0000785,"Grockstädt, Abzweig",51.327508,11.575951
0000823,"Leipzig, Porsche/Tor 2",51.399017,12.295242
0000851,"Leipzig, Porsche/Tor 3",51.401050,12.284334
0000874,"Zwenkau, Hafen",51.235142,12.335586
0000915,"Torgau, Bahnhof",51.562771,12.991872
0000918,"Elsnig, Abzweig B182",51.608653,12.926128
0000919,"Proschwitz (Wörblitz)",51.656642,12.859117
0000920,"Wörblitz (Dommitzsch)",51.661841,12.853328
0000922,"Dommitzsch, Pretzscher Str.",51.641974,12.880403
0000923,"Drebligar (Elsnig), Abzweig B182",51.628721,12.902548
0000966,"Prettin, Drei Linden",51.660964,12.934443
0000967,"Prettin, Lindenstr.",51.662030,12.924920
0001671,"Morl, Brachwitzer Weg",51.553428,11.919460
0001673,"Halle (Saale), Magdeburger Chaussee/Kaufland",51.522280,11.950512
0001685,"Dornitz, An der B6",51.638814,11.808935
0002033,"Fienstedt, Abzweig",51.536607,11.784958
0002034,"Fienstedt, Elisabeth-Zeidler-Str.",51.551556,11.786968
0002035,"Johannashall (Kloschwitz), Promenade",51.570872,11.770462
0002036,"Beesenstedt (Salzatal), Schule",51.566534,11.726532
0002074,"Langenbogen, Neubau",51.483046,11.763505
0002099,"Zaschwitz (Wettin), Salzmünder Str.",51.575412,11.804862
0002100,"Zaschwitz (Wettin), Fähre (Bus)",51.579823,11.809896
0002101,"Ziegelroda",51.333932,11.461712
0002127,"Wiehe, Marktplatz",51.265628,11.412331
0002155,"Trebitz Platz der Jugend",51.579512,11.767756
0002195,"Schwittersdorf, Naundorfer Str.",51.562829,11.708727
0002215,"Schochwitz, Bahnhof",51.542203,11.760876
0002247,"Salzmünde, Schulstr.",51.526095,11.829342
0002255,"Salzmünde, Carl-Wentzel-Platz",51.527437,11.823300
0002263,"Rumpin, Alte Feldstr.",51.601801,11.750113
0002293,"Röblingen am See, Ambulanz",51.447033,11.679030
0002294,"Röblingen am See, Bahnhof",51.462768,11.669086
0002300,"Querfurt, Merseburger Str.",51.381366,11.609391
0002301,"Querfurt, Westbahnhof",51.380025,11.589604
0002318,"Querfurt, Busbahnhof",51.383069,11.597907
0002319,"Querfurt, Geistpromenade",51.375822,11.600370
0002320,"Querfurt, Gymnasium",51.375179,11.602186
0002321,"Querfurt, Kalkwerk",51.378099,11.572198
0002332,"Pfützthal, Gödewitzer Str.",51.539484,11.819923
0002369,"Naundorf, Zum Kirchblick",51.553761,11.733772
0002409,"Langenbogen, Friedensstr.",51.483935,11.779917
0002412,"Leimbach (b. Querfurt), Gaststätte",51.355764,11.548891
0002420,"Kloschwitz, Ankerstr.",51.585521,11.757312
0002443,"Johannashall (Kloschwitz), Abzweig",51.575142,11.783362
0002469,"Höhnstedt, Abzweig",51.487212,11.752683
0002488,"Hermannseck (Ziegelroda)",51.349222,11.514230
0002598,"Farnstädt",51.427539,11.567167
0002686,"Bennstedt (Salzatal), Eisdorfer Str.",51.481089,11.824106
0002687,"Bennstedt (Salzatal), Eislebener Str.",51.484409,11.807161
0002708,"Beesenstedt (Salzatal), Freister Str.",51.568109,11.729959
0002749,"Stedten, Kreuzung",51.441978,11.682259
0002786,"Hohenmölsen, Strandbad Mondsee",51.136657,12.139159
0003171,"Stichelsdorf, Stichelsdorfer Str.",51.499851,12.048386
0003313,"Bothfeld (Röcken)",51.249963,12.109082
0003314,"Lützen, Sternbräu",51.252559,12.138787
0003315,"Kleinkorbetha, Denkmal",51.255125,12.045496
0003316,"Oeglitzsch (Dehlitz)",51.243388,12.032458
0003317,"Dehlitz (Saale)",51.230843,12.024214
0003320,"Pörsten, Bahnhof (Rippach)",51.218872,12.067855
0003321,"Poserna, Siedlung",51.216444,12.076742
0003322,"Kleingöhren (Rippach)",51.221906,12.081029
0003323,"Stößwitz (Sössen)",51.219523,12.095317
0003324,"Sössen, Abzweig",51.219778,12.105370
0003325,"Gostau (Sössen)",51.219602,12.112002
0003326,"Rahna (Großgörschen)",51.219712,12.172459
0003327,"Großgörschen, Ort",51.219047,12.182035
0003328,"Kleingörschen (Großgörschen)",51.221852,12.184677
0003329,"Kaja (Großgörschen)",51.225664,12.167485
0003330,"Lützen, Starsiedeler Str.",51.251865,12.139857
0003332,"Langendorf (b. Weißenfels), Denkmal",51.178360,11.960352
0003333,"Untergreißlau (Langendorf)",51.174840,11.960871
0003334,"Lützen, Gustav-Adolf-Str.",51.260715,12.144431
0003335,"Lützen, Markt",51.258350,12.141417
0003336,"Schweßwitz (Röcken)",51.255386,12.113087
0003337,"Michlitz (Röcken)",51.248101,12.116205
0003338,"Weißenfels, Zeitzer Str.",51.196874,11.983277
0003339,"Weißenfels, Selauer Str.",51.200311,11.982154
0003340,"Weißenfels, Mühlenwerke",51.208455,11.982910
0003341,"Weißenfels, Polizei",51.189190,11.967943
0003342,"Langendorf (b. Weißenfels), Weißenfelser Str.",51.183603,11.963865
0003343,"Weißenfels, Beuditzstr. II",51.198566,11.940655
0003344,"Weißenfels, Langendorfer Str.",51.197925,11.966731
0003345,"Weißenfels, Güldene Berge",51.191245,11.970966
0003346,"Weißenfels, Kugelberg",51.190215,11.984206
0003347,"Weißenfels, Schwimmhalle",51.200819,11.943303
0003348,"Weißenfels, Markwerbener Str. II",51.204429,11.964816
0003349,"Weißenfels, Märchenbrunnen",51.210705,11.967639
0003350,"Weißenfels, Geibelstr.",51.215531,11.968794
0003351,"Weißenfels, Burgwerbener Str.",51.218125,11.971810
0003352,"Burgwerben, Bäckerei",51.222022,11.978733
0003353,"Droyßig, Markt",51.041908,12.028013
0003354,"Romsdorf, Ort (Weißenborn)",51.043935,11.979979
0003355,"Kretzschau",51.059363,12.074026
0003356,"Priesen, Abzweig (Meineweh)",51.074021,12.008702
0003357,"Osterfeld, Bahnhof",51.071707,11.915973
0003358,"Weißenfels, Körnerstr.",51.210632,11.966603
0003359,"Weißenfels, Heuweg/Tagewerbener Str.",51.215713,11.964468
0003360,"Krimmitzschen (Rehmsdorf)",51.071627,12.225366
0003361,"Saubach, Schule",51.212918,11.521394
0003362,"Mollschütz (Abtlöbnitz)",51.070502,11.726924
0003363,"Kleinwethau, Brücke",51.134918,11.862065
0003441,"Borau (Weißenfels), L189",51.198682,12.005004
0003446,"Trebnitz (b. Zeitz), Schule",51.093390,12.061577
0003447,"Oberschwöditz (Trebnitz)",51.089451,12.046126
0003448,"Trebnitz (b. Zeitz), Siedlung",51.103371,12.053311
0003450,"Keutschen (Zembschen), Schulbushaltestelle",51.140380,12.082754
0003451,"Wählitz, Ort (Webau)",51.167001,12.088992
0003453,"Muschwitz",51.193354,12.120506
0003454,"Aupitz (Granschütz)",51.173873,12.036744
0003455,"Wählitz, Bahnhofstr. (Webau)",51.162832,12.081707
0003456,"Hohenmölsen, Bahnhof",51.155273,12.082975
0003457,"Hohenmölsen, Krankenhaus",51.154377,12.089006
0003458,"Schelkau",51.100414,12.001578
0003459,"Bonau (Schelkau)",51.094728,11.990885
0003461,"Hohenmölsen, Nord",51.160728,12.095337
0003462,"Lagnitz, Vorwerk (Schelkau)",51.101988,12.031527
0003463,"Zorbau, Autobahnmeisterei",51.196958,12.011574
0003464,"Zorbau, Ort",51.191023,12.021017
0003465,"Gerstewitz, Ort",51.191599,12.034848
0003466,"Nellschütz (Zorbau)",51.203817,12.049750
0003468,"Granschütz, Ort",51.183383,12.052391
0003469,"Göthewitz, Ort (Muschwitz)",51.188635,12.115723
0003470,"Tornau (Muschwitz)",51.185815,12.142816
0003471,"Webau, Bahnhof",51.178302,12.067176
0003472,"Webau, Ort",51.175041,12.074597
0003474,"Zellschen",51.096143,11.972414
0003475,"Kistritz",51.104534,11.968111
0003477,"Krauschwitz, Kostplatz",51.117118,11.971076
0003478,"Krauschwitz",51.118609,11.977157
0003479,"Krössuln (Krauschwitz)",51.123411,11.992239
0003481,"Hohenmölsen, Kirschberg-Center",51.162656,12.094165
0003482,"Köpsen, Am Werk/Sportplatz (Webau)",51.165724,12.065439
0003483,"Rössuln (Webau)",51.167944,12.060667
0003484,"Webau, Werk",51.175486,12.055603
0003485,"Granschütz, Tauchaer Str.",51.184359,12.056662
0003486,"Taucha (Lkr. Weißenfels)",51.192592,12.078728
0003487,"Wählitz, Eiche (Webau)",51.165822,12.089386
0003489,"Hohenmölsen, Ortseingang",51.163577,12.101834
0003493,"Runthal (Gröben)",51.127505,12.039143
0003494,"Gröben",51.121780,12.040796
0003495,"Oberwerschen",51.128348,12.062633
0003496,"Werschen, Sportplatz",51.131867,12.059422
0003497,"Werschen, Ort",51.135545,12.059422
0003498,"Keutschen (Zembschen)",51.141707,12.081184
0003499,"Zembschen",51.142021,12.092812
0003500,"Reichardtswerben, Konsum",51.247861,11.950033
0003501,"Posendorf (Reichardtswerben)",51.250375,11.959435
0003502,"Lunstädt (Roßbach)",51.261123,11.908422
0003503,"Roßbach, Sportplatz",51.260538,11.900848
0003505,"Nessa, Ort",51.149410,12.018954
0003506,"Wernsdorf (Nessa), Ort",51.152876,12.032662
0003507,"Obernessa",51.145232,12.003500
0003508,"Teuchern, Trockenwerk",51.137941,12.019849
0003511,"Goseck, Kochs Garten",51.196587,11.870496
0003512,"Pettstädt, Ort (Storkau)",51.236963,11.881589
0003513,"Pettstädt, Luftschiff (Storkau)",51.233505,11.885440
0003514,"Obschütz, Ort (Storkau)",51.229579,11.909997
0003515,"Storkau (b. Weißenfels), Ort",51.228252,11.924262
0003517,"Weißenfels, Roßbacher Str.",51.217735,11.956695
0003518,"Tagewerben, Feuerwehr",51.238389,11.952377
0003519,"Tagewerben, Mühle",51.242593,11.950741
0003520,"Gröbitz",51.134057,11.925490
0003521,"Prittitz, Ort",51.149683,11.929810
0003522,"Weißenfels, Am Herrenberg",51.213184,11.958536
0003523,"Markwerben, Ort",51.215511,11.942566
0003524,"Markwerben, Ortsausgang",51.211866,11.936249
0003525,"Uichteritz, Wartehalle",51.207257,11.923933
0003526,"Uichteritz, Siedlung",51.200252,11.917836
0003527,"Uichteritz, Schule",51.208207,11.916850
0003528,"Markröhlitz, Ortseingang (Goseck)",51.211751,11.869936
0003529,"Markröhlitz, Ort (Goseck)",51.209766,11.868381
0003530,"Bad Dürrenberg, Post",51.295377,12.063793
0003533,"Kriechau, Abzweig (Schkortleben)",51.235752,12.011674
0003534,"Bad Dürrenberg, Siedlung",51.285366,12.066682
0003536,"Plotha, Ort (Prittitz)",51.153423,11.916894
0003537,"Plotha, Schule (Prittitz)",51.151853,11.917110
0003538,"Prittitz, Abzweig Bahnhof",51.154613,11.930065
0003539,"Kirchfährendorf (Bad Dürrenberg), Teich",51.294729,12.056938
0003540,"Großkorbetha, Gniebendorfer Str,",51.251544,12.029671
0003541,"Großkorbetha, Teich",51.259272,12.030853
0003542,"Großkorbetha, Merseburger Str.",51.261699,12.028447
0003543,"Großkorbetha, Am Bahnhof",51.268022,12.027330
0003544,"Wengelsdorf, Weißenfelser Str.",51.271708,12.025967
0003545,"Wengelsdorf, Spergauer Weg",51.277589,12.025221
0003547,"Wengelsdorf, Kirche",51.281807,12.040108
0003548,"Kraßlau (Wengelsdorf)",51.272987,12.050089
0003549,"Kreischau (Muschwitz)",51.201817,12.103531
0003550,"Göthewitz, Kreuzung (Muschwitz)",51.192212,12.111070
0003551,"Wuschlaub (Muschwitz)",51.180988,12.130356
0003552,"Hohenmölsen, Salzstr.",51.161399,12.108666
0003553,"Hohenmölsen, Ernst-Thälmann-Str.",51.152919,12.109382
0003554,"Großgöhren (Rippach)",51.224614,12.072433
0003555,"Burgwerben, Ortsausgang",51.225109,11.988111
0003556,"Schkortleben",51.243587,12.019922
0003558,"Rippach, Ort",51.224944,12.063605
0003559,"Dippelsdorf",51.152577,12.024436
0003560,"Lützen, Pflegeheim",51.263423,12.148729
0003562,"Weißenfels, Tschirnhügel",51.219590,12.004176
0003563,"Pörsten, Ort (Rippach)",51.223382,12.052505
0003564,"Rippach, Brücke",51.227666,12.074670
0003565,"Meuchen, Ortseingang (Lützen)",51.251544,12.172374
0003639,"Leipzig, Bästlein-/Schwantesstr.",51.356546,12.430819
0003651,"Weißenfels, Heimatnaturgarten",51.195440,11.966857
0003659,"Löbschütz (Naumburg)",51.107790,11.734504
0003660,"Schleberoda, Siedlung",51.236867,11.803412
0003661,"Delitzsch, Friedrich-Engels-Str.",51.529203,12.354277
0003662,"Delitzsch, PEP-Markt/Raiffeisenstr.",51.512209,12.335057
0003685,"Leipzig, Messe-Allee/DB Schenker",51.393540,12.407402
0003706,"Sietzsch, Porta Logistik",51.491645,12.190097
0003741,"Gröben, Kindertagesstätte",51.123811,12.047030
0003743,"Taucha, Schulbushaltstelle",51.192212,12.111070
0003744,"Leipzig, Porsche/Tor 1",51.410378,12.295398
0003791,"Halle (Saale), Orionstr.",51.477913,12.086475
0003792,"Halle (Saale), Greatview",51.483508,12.074425
0003793,"Halle (Saale), Siriusstr.",51.486169,12.081978
0003794,"Halle (Saale), Uralitastr.",51.484815,12.093436
0003824,"Altgroitzschen (Kretzschau)",51.062039,12.079297
0003849,"Gaschwitz (Markkleeberg), Friedhof",51.254593,12.379955
0003850,"Zöbigker (Markkleeberg), An der Harth",51.262511,12.365144
0003851,"Markkleeberg, Ost, Auenplatz",51.277182,12.392954
0003853,"Markkleeberg, Städtelner Str.",51.271053,12.371087
0003854,"Markkleeberg, West, Wasserturmstr.",51.274310,12.367885
0003862,"Leipzig, Bei der Krähenhütte",51.287318,12.398463
0003863,"Leipzig, Johannishöhe",51.286683,12.407307
0003864,"Markkleeberg, S-Bahnhof Nord",51.287997,12.372200
0003865,"Leipzig, Matzelstr.",51.289408,12.390257
0003866,"Leipzig, Springerstr.",51.355076,12.370322
0003867,"Zum Dölitzer Schacht",51.286964,12.401979
0003909,"Röblingen am See, Stedtener Str.",51.457077,11.663962
0003912,"Querfurt, Gekra",51.384821,11.614501
0003913,"Querfurt, Gewerbegebiet",51.372454,11.604244
0003933,"Halle (Saale), Elsa-Brändström-Str.",51.450346,11.973194
0003934,"Halle (Saale), Neues Theater",51.484265,11.967683
0003935,"Halle (Saale), Nelkenstr.",51.494887,11.908714
0003936,"Döllnitz (b. Halle), Berliner Str.",51.407531,12.027587
0003937,"Halle (Saale), Betriebshof Freiimfelder Str.",51.484680,11.994480
0003938,"Halle (Saale), Richard-Loesche-Str.",51.420528,12.007495
0003939,"Halle (Saale), Cossebauder Weg",51.490654,12.013941
0003940,"Halle (Saale), Betriebshof Rosengarten",51.438605,11.984126
0003941,"Halle (Saale), Rudolf-Ernst-Weise-Str.",51.474110,11.986229
0003942,"Merseburg, Am Stadtpark",51.374274,11.995036
0003943,"Halle (Saale), BG Klinikum Bergmannstrost",51.460291,11.983757
0003944,"Halle (Saale), Suhler Str.",51.494336,12.006406
0003945,"Halle (Saale), Straßburger Weg",51.498005,11.935820
0003946,"Halle (Saale), Mark-Twain-Str.",51.478899,11.908805
0003947,"Halle (Saale), Eisenbahnstr.",51.432105,11.988679
0003948,"Schkopau, Ludwig-Uhland-Str.",51.386804,11.986026
0003949,"Halle (Saale), Lieskauer Str.",51.507562,11.874945
0003950,"Halle (Saale), Friesenstr.",51.489899,11.980190
0003951,"Halle (Saale), Tornau, Kirschallee",51.529268,12.004240
0003952,"Halle (Saale), Dorflage Büschdorf",51.478869,12.031622
0003955,"Halle (Saale), Gertraudenfriedhof",51.503983,11.988486
0003956,"Halle (Saale), Apoldaer Str./Birkhahnweg",51.494744,12.007355
0003957,"Halle (Saale), Kantstr.",51.466152,11.970019
0003958,"Halle (Saale), Knolls Hütte",51.509944,11.903752
0003960,"Halle (Saale), Osendorf",51.423391,12.012961
0004025,"Grana (b. Zeitz), Gewerbegebiet",51.055000,12.102313
0004026,"Näthern (Kretzschau)",51.055914,12.094641
0004027,"Döschwitz",51.064038,12.058654
0004028,"Grana (b. Zeitz)",51.053781,12.108252
0004029,"Zeitz, Michaeliskirche",51.050349,12.134384
0004030,"Zeitz, Kalktor",51.047630,12.138522
0004031,"Luckenau, Dreieck",51.088092,12.076032
0004032,"Luckenau",51.085938,12.085768
0004033,"Reußen (Theißen)",51.084573,12.099625
0004034,"Theißen, Schule",51.083781,12.107423
0004035,"Zeitz, Donaliesstr.",51.059232,12.132730
0004036,"Zeitz, Weißenfelser Str.",51.061286,12.129901
0004037,"Zeitz, August-Dietzschold-Str.",51.065717,12.124278
0004038,"Zeitz, Käthe-Kollwitz-Siedlung",51.068170,12.122317
0004039,"Theißen, Abzweig 397",51.078839,12.114072
0004040,"Theißen, Globus",51.083992,12.109978
0004041,"Theißen, Markt",51.086681,12.108274
0004044,"Tackau (Deuben)",51.117201,12.076595
0004045,"Zeitz, Schützenplatz",51.050552,12.144227
0004046,"Oberkaka (Unterkaka)",51.086189,11.965737
0004047,"Pretzsch (Burgenlandkreis)",51.094770,11.948552
0004049,"Görschen",51.111592,11.902245
0004050,"Scheiplitz, Rathewitzer Str. (Görschen)",51.121729,11.887951
0004051,"Rathewitz, Neubau (Görschen)",51.121625,11.876515
0004052,"Rathewitz, Ort (Görschen)",51.119454,11.873751
0004053,"Mertendorf, Schule",51.118565,11.860125
0004054,"Mertendorf (Bus)",51.118300,11.855908
0004055,"Wethau, Mitte",51.138479,11.854325
0004056,"Weichau (Naumburg)",51.146699,11.831289
0004057,"Naumburg (Saale), Weißenfelser Str./Friedhof",51.147277,11.827108
0004058,"Naumburg (Saale), Weißenfelser Str./Kaserne",51.148829,11.820584
0004059,"Wethau, Bahnhof",51.139308,11.851660
0004060,"Meineweh",51.074984,11.989440
0004061,"Zeitz, Berufsschulzentrum",51.058091,12.126332
0004062,"Görschen, Abzweig",51.112900,11.908583
0004064,"Naumburg (Saale), Waldschloss",51.139212,11.809221
0004065,"Zeitz, Kleefeldplatz",51.044140,12.145275
0004066,"Zeitz, Abzweig Bergsiedlung",51.039637,12.153870
0004067,"Grundhof (Würchwitz)",51.031816,12.190842
0004068,"Stockhausen (Würchwitz)",51.034311,12.199227
0004069,"Hollsteitz, Abzweig (Döschwitz)",51.074344,12.033087
0004071,"Geußnitz",51.015724,12.184789
0004072,"Wildenborn (Geußnitz)",51.003577,12.195642
0004073,"Lindenberg (Kayna)",50.996570,12.211105
0004074,"Kayna, Bahnhof",50.994459,12.231876
0004075,"Kayna, Waldbad",50.989791,12.230284
0004076,"Roda (Kayna)",50.981283,12.229066
0004077,"Mahlen, Abzweig (Kayna)",50.976050,12.227762
0004078,"Weißenborn (Bröckau)",50.970061,12.224527
0004079,"Bröckau",50.963271,12.212181
0004080,"Zangenberg (Zeitz)",51.073201,12.154255
0004081,"Bornitz (b. Zeitz)",51.087485,12.167692
0004082,"Draschwitz",51.100149,12.180454
0004083,"Reuden (b. Zeitz), Gemeinde",51.112372,12.194822
0004084,"Predel (Reuden)",51.115593,12.197730
0004085,"Predel, Gärtnerei (Reuden)",51.120688,12.205397
0004086,"Profen, Zeitzer Str.",51.125993,12.211937
0004087,"Profen, Sparkasse",51.130602,12.218259
0004090,"Loitsch, Abzweig (Würchwitz)",51.034236,12.220613
0004091,"Oelsen (Spora)",51.033033,12.247467
0004093,"Prehlitz (Spora)",51.030098,12.273029
0004096,"Zeitz, Brühlcenter",51.050344,12.128877
0004097,"Bornitz (b. Zeitz), Kindergarten",51.089627,12.173592
0004098,"Draschwitz, Ort",51.099290,12.181637
0004099,"Reuden (b. Zeitz), Schule",51.107766,12.188319
0004100,"Profen, Ort",51.127161,12.216877
0004101,"Profen, Klubhaus",51.127179,12.204089
0004102,"Zeitz, Platanenweg",51.040890,12.150076
0004103,"Zeitz, Waldschlößchen",51.065918,12.142928
0004105,"Jüdendorf (Steigra)",51.310964,11.691877
0004107,"Steigra",51.299602,11.660306
0004108,"Barnstädt",51.344451,11.638672
0004109,"Querfurt, Bauhof",51.385109,11.613296
0004110,"Pirkau (Nonnewitz)",51.099117,12.138827
0004111,"Stolzenhain (Weißenborn)",51.030071,11.971133
0004112,"Weißenborn",51.033739,11.991574
0004113,"Hassel (Droyßig)",51.040184,12.006722
0004114,"Droyßig, Busplatz",51.039142,12.030657
0004115,"Kretzschau, Schule",51.056081,12.073337
0004116,"Kretzschau, Abzweig Mannsdorf",51.046903,12.070533
0004117,"Kaynsberg (Goldschau)",51.063324,11.874395
0004118,"Goldschau, Abzweig Lindau",51.060078,11.891543
0004119,"Goldschau, Ort",51.063036,11.897321
0004120,"Haardorf (Waldau)",51.066007,11.916328
0004121,"Zeitz, Brühl",51.047948,12.130028
0004122,"Zeitz, Busbahnhof",51.055895,12.133118
0004123,"Nonnewitz",51.093866,12.119037
0004124,"Nonnewitz, Schule",51.094183,12.124999
0004125,"Unterschwöditz (Nonnewitz)",51.086876,12.137954
0004126,"Romsdorf, Abzweig (Weißenborn)",51.045539,11.967873
0004127,"Haynsburg, Bahnhof (Grana)",51.027303,12.065315
0004128,"Haynsburg, Schillerplatz (Grana)",51.024291,12.061908
0004129,"Droyßig, Wilhelm-Kritzinger-Str.",51.042087,12.031534
0004131,"Schleinitz, Gewerbegebiet (Unterkaka)",51.081351,11.948697
0004132,"Osterfeld, Abzweig Waldau",51.077011,11.928953
0004133,"Waldau",51.064152,11.932949
0004135,"Osterfeld, Schule",51.077576,11.931886
0004136,"Thierbach (Meineweh)",51.060694,11.987406
0004137,"Quesnitz (Meineweh)",51.064573,12.011443
0004138,"Weickelsdorf, Meineweher Str.",51.049184,11.962414
0004139,"Kleinhelmsdorf",51.035943,11.931280
0004140,"Roda (Weickelsdorf)",51.043810,11.948792
0004141,"Weickelsdorf, Bahnhofsstr.",51.046181,11.963107
0004142,"Golben (Bergisdorf)",51.021591,12.116019
0004143,"Bergisdorf (Gutenborn)",51.030723,12.118828
0004144,"Rasberg, Clara-Zetkin-Str. (Zeitz)",51.036762,12.140112
0004145,"Rasberg, Wartehalle (Zeitz)",51.041441,12.136307
0004146,"Zeitz, Moskauer Str.",51.045091,12.128623
0004147,"Rasberg, Kurze Str. (Zeitz)",51.037478,12.136196
0004148,"Haynsburg, Gasthaus (Grana)",51.018600,12.067021
0004152,"Kleinosida (Grana)",51.042324,12.098841
0004153,"Salsitz (Grana)",51.040269,12.090560
0004154,"Raba, Gasthaus (Haynsburg)",51.022469,12.083301
0004155,"Pötewitz (Wetterzeube)",51.004839,11.989898
0004156,"Trebnitz (Wetterzeube)",50.998072,11.984119
0004157,"Koßweda (Wetterzeube)",50.997758,12.016287
0004158,"Dietendorf (Wetterzeube)",51.005501,12.028034
0004159,"Wetterzeube, Abzweig Schleckweda",51.014089,12.020711
0004160,"Zeitz, Kaufland",51.035765,12.128008
0004161,"Goßra (Haynsburg)",51.012433,12.066272
0004162,"Breitenbach (Burgenlandkreis)",51.003216,12.074499
0004163,"Zeitz, Badstubenvorstadt",51.052233,12.128520
0004164,"Großosida (Bergisdorf)",51.035456,12.108607
0004168,"Droßdorf (Burgenlandkreis)",51.008178,12.123000
0004169,"Zeitz, Friedensstr.",51.038160,12.126216
0004170,"Zeitz, Am Elsterhang",51.040492,12.117687
0004171,"Zeitz, Wiesengrund",51.040338,12.122112
0004172,"Zeitz, Stephansstr.",51.049184,12.124862
0004173,"Hollsteitz (Döschwitz)",51.078538,12.033247
0004174,"Kirchsteitz (Döschwitz)",51.064679,12.036492
0004175,"Gladitz (Döschwitz)",51.072089,12.057801
0004176,"Breitenbach (Burgenlandkreis), Abzweig Schlottweh",51.013763,12.076209
0004177,"Schkauditz (Wetterzeube)",51.022794,12.045229
0004178,"Wetterzeube (Bus)",51.008996,12.012499
0004180,"Dragsdorf (Wittgendorf)",50.984719,12.190457
0004181,"Großpörthen (Wittgendorf)",50.995949,12.164711
0004182,"Nedissen (Wittgendorf)",50.994060,12.154780
0004184,"Kayna",50.993641,12.238359
0004186,"Ossig (Schellbach)",50.998138,12.099569
0004187,"Zeitz, Naumburger Str.",51.059689,12.128780
0004188,"Zeitz, Dietrich-Bonhoeffer-Str./Wendeschleife",51.038993,12.162027
0004189,"Zeitz, Abzweig Dietrich-Bonhoeffer-Str.",51.045021,12.156917
0004190,"Zeitz, August-Bebel-Str.",51.046977,12.144084
0004191,"Zeitz, Abzweig Robert-Schumann-Str.",51.041376,12.158367
0004192,"Zeitz, Platanenweg/Videothek",51.039318,12.153035
0004193,"Zeitz, Haus Zeitzblick",51.040687,12.147266
0004194,"Zeitz, Käthe-Niederkirchner-Str.",51.042718,12.143639
0004196,"Tröglitz, Neue Str.",51.060789,12.178595
0004197,"Tröglitz, Post",51.055395,12.178225
0004198,"Wittgendorf",50.979112,12.193249
0004199,"Würchwitz",51.018244,12.227915
0004200,"Würchwitz, Oberdorf",51.014048,12.227794
0004201,"Lobas (Würchwitz)",51.008236,12.226948
0004202,"Loitsch (Würchwitz)",51.030534,12.220841
0004204,"Gleina (Tröglitz)",51.044637,12.184634
0004205,"Lonzig (Schellbach)",50.980808,12.088500
0004206,"Schellbach",50.975357,12.119016
0004208,"Loitzschütz (Heuckewalde)",50.981460,12.143555
0004209,"Giebelroth (Heuckewalde)",50.969376,12.136515
0004210,"Heuckewalde",50.966772,12.153057
0004211,"Kleinpörthen (Wittgendorf)",50.980886,12.172403
0004212,"Zeitz, Tröglitzer Str.",51.054308,12.148333
0004213,"Wadewitz (Könderitz)",51.090225,12.220707
0004214,"Rehmsdorf, Hauptstr.",51.062063,12.215140
0004215,"Rehmsdorf, Siedlung",51.061015,12.203866
0004216,"Zettweil (Kayna)",51.000638,12.252200
0004217,"Rehmsdorf, Rumsdorfer Platz",51.057785,12.215414
0004218,"Zeitz, Michaelisfriedhof",51.045144,12.151719
0004222,"Bockwitz (Würchwitz)",51.023806,12.210137
0004223,"Suxdorf (Würchwitz)",51.019370,12.220052
0004224,"Maßnitz (Göbitz)",51.076746,12.169127
0004225,"Ostrau (Reuden)",51.099051,12.195973
0004226,"Etzoldshain (Könderitz), Abzweig",51.088970,12.209783
0004227,"Traupitz (Könderitz)",51.093010,12.225042
0004228,"Göbitz, Abzweig Maßnitz",51.066401,12.175569
0004229,"Industriepark (Tröglitz/Elsteraue)",51.072853,12.194180
0004230,"Torna (Göbitz), Abzweig",51.080356,12.203234
0004231,"Könderitz",51.085167,12.211090
0004232,"Querfurt, Europahaus",51.384365,11.606745
0004233,"Döbitzschen (Langendorf)",51.082307,12.243640
0004234,"Langendorf (b. Zeitz)",51.086877,12.256795
0004235,"Staschwitz (Langendorf)",51.076123,12.253256
0004237,"Naumburg (Saale), Markt",51.152842,11.810364
0004238,"Naumburg (Saale), Neustr.",51.150529,11.807450
0004239,"Naumburg (Saale), Michaelisstr.",51.152351,11.800098
0004240,"Naumburg (Saale), Moritzberg",51.154533,11.800202
0004241,"Nödlitz (Deuben)",51.128799,12.083768
0004242,"Lützkewitz (Profen)",51.131983,12.224929
0004243,"Wildschütz (Deuben)",51.121921,12.076938
0004244,"Minkwitz (Könderitz)",51.100672,12.230845
0004245,"Alt Tröglitz",51.072108,12.188206
0004246,"Göbitz",51.084790,12.183811
0004247,"Torna (Göbitz)",51.081217,12.200681
0004248,"Staschwitz, Mühle (Langendorf)",51.080654,12.254887
0004249,"Tröglitz, Schule",51.057301,12.178584
0004250,"Sprossen (Rehmsdorf)",51.045489,12.220781
0004251,"Kadischen (Tröglitz)",51.049095,12.204441
0004252,"Zeitz, Dianasaal",51.062566,12.134839
0004253,"Naumburg (Saale), Lindenhof (Dom)",51.153655,11.803094
0004255,"Deuben (Burgenlandkreis), Karl-Liebknecht-Str.",51.114556,12.075605
0004257,"Naumburg (Saale), Humboldtstr.",51.159019,11.812241
0004258,"Naumburg (Saale), Postring",51.155213,11.811581
0004259,"Naumburg (Saale), Freier Blick",51.147840,11.795137
0004260,"Naumburg (Saale), Lepsiusstr./Parkstr.",51.147904,11.801444
0004265,"Kalbitz (Bad Bibra)",51.191307,11.559787
0004266,"Naumburg (Saale), Kramerplatz",51.150668,11.805043
0004267,"Naumburg (Saale), Salztor (Bus)",51.149845,11.804893
0004268,"Naumburg (Saale), Overwegstr.",51.157658,11.822438
0004270,"Naumburg (Saale), Kaufland",51.147164,11.832919
0004271,"Naumburg (Saale), Friedhof Südeingang",51.144556,11.828113
0004272,"Naumburg (Saale), Technische Werke",51.143910,11.824686
0004274,"Naumburg (Saale), Schreberstr.",51.148930,11.820119
0004275,"Zeitz, Schützenstr.",51.050436,12.140866
0004279,"Zeitz, Weberstr.",51.050213,12.139453
0004280,"Naumburg (Saale), Jägerstr.",51.158304,11.804205
0004281,"Roßbach (Naumburg)",51.168633,11.780907
0004282,"Kleinjena (Naumburg)",51.181142,11.780458
0004283,"Kleinjena, Schule (Naumburg)",51.181686,11.772681
0004284,"Kleinjena, Neubau (Naumburg)",51.177103,11.775996
0004286,"Großwilsdorf (Naumburg)",51.179797,11.752541
0004287,"Großjena (Naumburg)",51.188633,11.792827
0004290,"Naumburg (Saale), Theaterplatz (Bus)",51.152094,11.814193
0004291,"Freyburg (Unstrut), Kirchstr.",51.212456,11.769863
0004292,"Freyburg (Unstrut), Busbahnhof/Querfurter Str.",51.220375,11.766559
0004294,"Laucha (Unstrut), Zuckerfabrik",51.230799,11.668104
0004295,"Kirchscheidungen (Bus)",51.243509,11.657968
0004296,"Tröbsdorf (Burgscheidungen)",51.243057,11.634265
0004297,"Wennungen (Karsdorf)",51.266199,11.635833
0004298,"Wetzendorf (Karsdorf)",51.278399,11.642208
0004299,"Katzelburg (Nebra)",51.284508,11.605527
0004302,"Memleben",51.265615,11.488051
0004303,"Wendelstein (Memleben)",51.278341,11.464901
0004305,"Nißmitz (Freyburg)",51.199432,11.770098
0004307,"Burgscheidungen",51.244993,11.640879
0004308,"Laucha (Unstrut), Gewerbegebiet",51.222908,11.667189
0004309,"Bad Bibra, Bad",51.209447,11.596619
0004310,"Abzweig Rothenberga",51.203036,11.429350
0004312,"Thalwinkel",51.223105,11.604247
0004313,"Thalwinkel, Bad Bibraer-Str.",51.222717,11.600245
0004314,"Bergwinkel (Thalwinkel)",51.227117,11.609757
0004315,"Freyburg (Unstrut), Bahnhof",51.207327,11.768911
0004316,"Naumburg (Saale), Jenaer Str.",51.149454,11.803554
0004317,"Neuflemmingen (Naumburg)",51.116122,11.774279
0004318,"Janisroda",51.107535,11.783776
0004319,"Prießnitz (Naumburg)",51.094074,11.777784
0004323,"Nebra (Unstrut), Sonderschule",51.290220,11.579870
0004324,"Casekirchen",51.064351,11.837944
0004325,"Meyhen (Naumburg)",51.085597,11.819731
0004326,"Abtlöbnitz",51.079551,11.719063
0004327,"Schieben (Bad Kösen)",51.091395,11.713891
0004328,"Tultewitz (Bad Kösen)",51.095345,11.706812
0004329,"Kreipitzsch (Crölpa-Löbschütz)",51.104427,11.713712
0004330,"Crölpa",51.105669,11.734093
0004331,"Freiroda, Haltestelle (Crölpa-Löbschütz)",51.108016,11.726776
0004332,"Heiligenkreuz (Crölpa-Löbschütz)",51.107208,11.758120
0004334,"Naumburg (Saale), Klopstockstr.",51.148990,11.788373
0004335,"Naumburg (Saale), Am Holländer",51.145421,11.786871
0004338,"Reinsdorf (Burgenlandkreis)",51.298204,11.598918
0004339,"Karsdorf, Bahnhof",51.278878,11.651267
0004340,"Balgstädt, Größnitzer Str.",51.203211,11.733300
0004341,"Neidschütz (Naumburg)",51.104054,11.805974
0004342,"Boblas (Naumburg)",51.110109,11.815525
0004344,"Naumburg (Saale), Lindenring/Dom",51.153215,11.806455
0004345,"Naumburg (Saale), Ecke Bürgergartenstr.",51.148836,11.810564
0004346,"Naumburg (Saale), Parkstr./Bürgengartenstr.",51.147348,11.809644
0004347,"Naumburg (Saale), Sperlingsholz",51.144506,11.784515
0004348,"Aue (Molau)",51.059180,11.801103
0004349,"Molau",51.057481,11.780043
0004350,"Sieglitz, Schule (Molau)",51.063596,11.761019
0004351,"Crauschwitz (Leislau)",51.071643,11.755704
0004352,"Kleingestewitz (Leislau)",51.076736,11.752096
0004353,"Leislau",51.083838,11.747536
0004355,"Seidewitz (Casekirchen)",51.054982,11.834218
0004358,"Köckenitzsch (Casekirchen)",51.078444,11.831099
0004359,"Großgestewitz (Löbitz)",51.083031,11.856517
0004360,"Naumburg (Saale), Parkstr.",51.147797,11.803654
0004361,"Naumburg (Saale), Michaelisholz",51.140970,11.780829
0004362,"Flemmingen, Teich (Naumburg)",51.134054,11.769938
0004363,"Flemmingen, Dorfplatz (Naumburg)",51.132499,11.766887
0004364,"Wettaburg (Naumburg)",51.094223,11.837432
0004365,"Beuditz (Naumburg)",51.089473,11.843423
0004366,"Pauscha (Löbitz)",51.082473,11.909356
0004367,"Lissen (Osterfeld)",51.082455,11.925557
0004368,"Osterfeld, Markt",51.079879,11.930390
0004369,"Cauerwitz (Utenbach)",51.073843,11.863101
0004370,"Naumburg (Saale), Am Ziegelgraben/Lepsiusstr.",51.143019,11.800820
0004371,"Naumburg (Saale), Am Ziegelgraben",51.143664,11.804661
0004372,"Naumburg (Saale), Hochstr.",51.144885,11.807751
0004373,"Naumburg (Saale), Bürgergarten/Gaststätte",51.145062,11.810091
0004374,"Naumburg (Saale), Kletterwald",51.140606,11.809192
0004375,"Wetterscheidt (Mertendorf)",51.108291,11.846393
0004376,"Naumburg (Saale), Busbahnhof am Hauptbahnhof",51.162424,11.797349
0004378,"Hassenhausen (Bad Kösen)",51.127561,11.658531
0004379,"Rehehausen (Taugwitz)",51.113883,11.643233
0004380,"Poppel (Taugwitz)",51.126507,11.630424
0004381,"Gernstedt (Taugwitz)",51.117336,11.614032
0004382,"Lißdorf (Eckartsberga)",51.126726,11.590045
0004383,"Eckartsberga, Neue Str.",51.121896,11.563646
0004384,"Eckartsberga, Hauptstr.",51.120009,11.556199
0004385,"Eckartsberga, Buttstädter Str.",51.119533,11.549173
0004386,"Niederholzhausen (Burgholzhausen)",51.126125,11.532977
0004387,"Burgholzhausen",51.133836,11.518538
0004388,"Herrengosserstedt",51.142391,11.477943
0004392,"Utenbach",51.066050,11.863704
0004393,"Löbitz",51.088012,11.885063
0004394,"Seiselitz (Utenbach)",51.056102,11.868255
0004395,"Punkewitz (Mertendorf)",51.117679,11.850784
0004397,"Naumburg (Saale), Schwarzes Roß",51.149229,11.811445
0004398,"Seena (Tromsdorf)",51.111849,11.520898
0004399,"Tromsdorf (Bus)",51.115465,11.484271
0004400,"Thüsdorf (Tromsdorf)",51.107062,11.494246
0004401,"Millingsdorf (Tromsdorf)",51.127149,11.480241
0004402,"Herrengosserstedt, Schule",51.143637,11.475565
0004404,"Bad Kösen, Bahnhof",51.130068,11.719188
0004405,"Bad Kösen, Borlachschule",51.130515,11.715414
0004406,"Naumburg (Saale), City-Busstop Hallesche Str.",51.156375,11.815254
0004407,"Naumburg (Saale), Weimarer Str.",51.149899,11.804496
0004408,"Naumburg (Saale), Thüringer Pforte",51.151829,11.794877
0004409,"Naumburg (Saale), Schweinsbrücke",51.151744,11.786738
0004410,"Almrich (Naumburg), Linde",51.150244,11.770823
0004411,"Bad Kösen, Schulpforte",51.142994,11.749249
0004412,"Bad Kösen, Kaufhalle",51.136768,11.720654
0004414,"Bad Kösen, Kirchplatz",51.134900,11.715114
0004416,"Schimmel (Wischroda)",51.173614,11.572865
0004418,"Wischroda",51.164417,11.550704
0004421,"Eckartsberga, Markt",51.122611,11.560557
0004422,"Fränkenau (Bad Kösen)",51.138336,11.706169
0004423,"Niedermöllern (Möllern)",51.155250,11.704114
0004424,"Pomnitz (Möllern)",51.156043,11.694696
0004425,"Obermöllern",51.163247,11.676613
0004426,"Dietrichsroda (Burkersroda)",51.175812,11.624449
0004427,"Burkersroda",51.178093,11.642101
0004429,"Hohndorf (Spielberg)",51.153779,11.658909
0004430,"Burgheßler",51.160347,11.649207
0004431,"Pleismar (Klosterhäseler)",51.177493,11.599099
0004432,"Klosterhäseler",51.163546,11.612542
0004433,"Gößnitz (Klosterhäseler)",51.150757,11.598997
0004434,"Braunsroda (Wischroda)",51.163255,11.522214
0004435,"Marienthal (Eckartsberga)",51.142469,11.527626
0004436,"Eckartsberga, Funkturm",51.136437,11.535499
0004437,"Punschrau (Bad Kösen)",51.140595,11.679146
0004439,"Rödigen (Bad Kösen)",51.102588,11.692541
0004440,"Kleinheringen (Bad Kösen)",51.105314,11.672106
0004441,"Stendorf (Bad Kösen)",51.113904,11.694656
0004442,"Steinbach (Bad Bibra)",51.192655,11.583112
0004443,"Kukulau (Bad Kösen)",51.119789,11.733899
0004444,"Naumburg (Saale), Othmarsfriedhof",51.151067,11.798520
0004445,"Frankroda (Wischroda)",51.156555,11.566097
0004447,"Spielberg (Hohndorf)",51.143153,11.645806
0004448,"Zäckwar (Spielberg)",51.136522,11.634452
0004449,"Benndorf (Spielberg)",51.134492,11.627177
0004451,"Taugwitz",51.124827,11.636786
0004452,"Saaleck (Bad Kösen)",51.111915,11.700196
0004453,"Marienroda (Steinburg)",51.176086,11.492379
0004454,"Bucha (Burgenlandkreis), Ort",51.237226,11.509390
0004455,"Plößnitz (Laucha)",51.207872,11.655929
0004456,"Laucha (Unstrut), Schule",51.218244,11.667492
0004457,"Laucha (Unstrut), Bahnhof",51.222202,11.679991
0004458,"Hirschroda, Krankenhaus",51.211428,11.678549
0004459,"Hirschroda",51.205972,11.686720
0004461,"Krawinkel (Golzen)",51.202514,11.624866
0004462,"Balgstädt (Bus)",51.205393,11.730753
0004463,"Größnitz",51.188723,11.715360
0004464,"Städten (Größnitz)",51.176699,11.705785
0004465,"Bad Kösen, Kukulauer Str.",51.127135,11.726203
0004466,"Bad Kösen, Niddaer Str.",51.135015,11.722923
0004467,"Bad Kösen, Hermann-Lielje-Ring",51.133990,11.731823
0004468,"Bad Kösen, Katze",51.125035,11.716749
0004469,"Lengefeld (Bad Kösen), Mitte",51.118810,11.713427
0004470,"Lengefeld, Schule (Bad Kösen)",51.114690,11.710414
0004471,"Bad Bibra, Neubaublock",51.208152,11.586499
0004472,"Tauhardt (Billroda)",51.197159,11.476775
0004473,"Billroda",51.202185,11.459271
0004474,"Kahlwinkel, Finnekrug (Billroda)",51.210693,11.473193
0004475,"Kahlwinkel",51.215107,11.481275
0004476,"Bad Bibra, Schule",51.202344,11.579590
0004479,"Saubach",51.215454,11.525140
0004480,"Lossa, Schule (Burgenlandkreis)",51.217919,11.421344
0004481,"Lossa (Burgenlandkreis)",51.222301,11.411137
0004482,"Allerstedt (Kaiserpfalz)",51.254506,11.440946
0004483,"Wohlmirstedt",51.247963,11.461041
0004484,"Borgau (Steinburg)",51.178520,11.523105
0004485,"Steinburg",51.190531,11.518082
0004486,"Wallroda (Bad Bibra)",51.195167,11.544806
0004487,"Golzen",51.220037,11.639206
0004564,"Schwemsal, Tornauer Str.",51.627009,12.558754
0004976,"Halle (Saale), Anhalter Platz",51.437106,11.965975
0004977,"Halle (Saale), Lilienstr.",51.485845,11.929178
0004979,"Leuna, Am Haupttor",51.325024,12.012100
0004980,"Merseburg, Lindenstr.",51.360599,11.994329
0004983,"Halle (Saale), Mötzlich",51.516462,12.010977
0004984,"Halle (Saale), S-Bahnhof Trotha",51.522164,11.961876
0004985,"Dieskau, Abzweig Zwintschöna",51.442237,12.043509
0004986,"Halle (Saale), Gartenstadtstr.",51.493340,11.905505
0004988,"Halle (Saale), Elbestr.",51.511999,11.886088
0004989,"Halle (Saale), Brühlstr.",51.432727,11.964210
0004990,"Halle (Saale), Am Klausberg",51.506341,11.960417
0004991,"Daspig (Leuna)",51.313120,12.037115
0004993,"Halle (Saale), Schönnewitzer Str.",51.476290,12.044409
0004994,"Halle (Saale), Robert-Koch-Str.",51.462737,11.970675
0004995,"Lieskau, Ringstr.",51.500582,11.867706
0004996,"Halle (Saale), Verlängerte Apoldaer Str.",51.483455,12.006496
0004997,"Leuna, Industrietor",51.331359,12.008038
0004998,"Halle (Saale), Zscherbener Landstr.",51.471158,11.890303
0004999,"Leuna, Leunatorstr.",51.332196,12.001361
0005000,"Halle (Saale), Dieselstr.",51.458878,12.009485
0005001,"Halle (Saale), Lettin",51.523720,11.911274
0005002,"Merseburg, Leunaweg",51.337983,11.995165
0005003,"Halle (Saale), Landesmuseum für Vorgeschichte",51.498824,11.962608
0005004,"Halle (Saale), Moskauer Str.",51.451853,11.960902
0005005,"Halle (Saale), Moritzburgring",51.487324,11.966168
0005006,"Halle (Saale), Mindener Str.",51.479259,11.894300
0005007,"Halle (Saale), Mühlweg",51.493747,11.965332
0005008,"Halle (Saale), Riebeckplatz",51.478844,11.982536
0005009,"Halle (Saale), S-Bahnhof Rosengarten",51.446495,11.983907
0005010,"Halle (Saale), Magdeburger Chaussee",51.529379,11.945321
0005011,"Halle (Saale), Hallesche Str.",51.485432,11.908962
0005012,"Halle (Saale), Industriestr.",51.436514,11.977589
0005014,"Halle (Saale), Am Waldrand",51.511090,11.897039
0005015,"Merseburg, Haeckelstr.",51.344794,11.994992
0005016,"Halle (Saale), Otto-Stomps-Str.",51.483432,12.011247
0005018,"Halle (Saale), Osnabrücker Str.",51.477451,11.891766
0005019,"Halle (Saale), Karl-Ernst-Weg",51.519060,11.961991
0005020,"Halle (Saale), Triftstr.",51.500217,11.957614
0005021,"Halle (Saale), Louise-Otto-Peters-Str.",51.506333,11.946470
0005022,"Halle (Saale), Ludwigstr.",51.471085,11.959111
0005023,"Halle (Saale), Lise-Meitner-Str.",51.486890,11.924046
0005024,"Halle (Saale), Lutherstr.",51.466334,11.983734
0005026,"Halle (Saale), Cranachstr.",51.513275,11.989757
0005027,"Halle (Saale), Coimbraer Str.",51.434309,11.959234
0005028,"Halle (Saale), Hegelstr.",51.499924,11.966367
0005029,"Halle (Saale), Heidering",51.517201,11.917789
0005030,"Halle (Saale), Hyazinthenstr.",51.481292,11.940837
0005031,"Halle (Saale), Heide-Universitätsklinikum",51.500946,11.931501
0005032,"Halle (Saale), Am Grünen Feld",51.456830,11.977026
0005034,"Halle (Saale), Lupinenweg",51.488575,12.038042
0005035,"Halle (Saale), Am Heidebad",51.481799,11.888643
0005036,"Merseburg, Süd, Naumburger Str.",51.334065,11.983470
0005037,"Halle (Saale), Heidebahnhof",51.502948,11.887057
0005038,"Halle (Saale), Heizkraftwerk",51.523706,11.944955
0005039,"Zwintschöna (Dieskau), Bahnhofstr.",51.447453,12.047280
0005041,"Halle (Saale), Otto-Stomps-Str. Nord",51.489495,12.009025
0005042,"Halle (Saale), Bitterfelder Str.",51.478723,12.026861
0005043,"Bad Dürrenberg, Bahnhof",51.304298,12.068892
0005044,"Halle (Saale), Beesen",51.432238,11.968968
0005045,"Halle (Saale), Schwalbenweg",51.460201,11.971388
0005046,"Halle (Saale), Franz-Maye-Str.",51.471395,12.027210
0005047,"Halle (Saale), Huttenstr.",51.462727,11.983787
0005049,"Merseburg, Herweghstr.",51.348690,11.995562
0005050,"Halle (Saale), Heide Nord",51.515667,11.903209
0005051,"Halle (Saale), Berliner Brücke",51.488972,11.994675
0005052,"Halle (Saale), Begonienstr.",51.484319,11.939851
0005053,"Halle (Saale), Sparkasse Dölau",51.511634,11.892131
0005054,"Halle (Saale), Blumenau",51.515679,11.909608
0005055,"Merseburg, Kötzschener Weg (Tram)",51.334628,11.991688
0005057,"Halle (Saale), Brachwitzer Str.",51.529924,11.929313
0005059,"Halle (Saale), S-Bahnhof Zscherbener Str.",51.474641,11.922038
0005060,"Halle (Saale), Zoo",51.506439,11.965797
0005061,"Halle (Saale), Zentrum Neustadt",51.479981,11.928542
0005062,"Halle (Saale), Zwickauer Str.",51.485698,12.044619
0005064,"Halle (Saale), Emil-Schuster-Str.",51.526729,11.970864
0005065,"Halle (Saale), Erich-Kästner-Str.",51.438723,11.958542
0005066,"Halle (Saale), Büschdorf",51.479390,12.034796
0005067,"Halle (Saale), Burg Giebichenstein",51.502053,11.954693
0005069,"Halle (Saale), Braunschweiger Bogen",51.480212,11.899385
0005070,"Halle (Saale), Bruckdorf",51.445764,12.027125
0005071,"Lieskau, Steinbruchweg",51.506803,11.859265
0005076,"Halle (Saale), Damaschkestr.",51.456819,11.983847
0005077,"Halle (Saale), Äußere Hordorfer Str.",51.498362,11.980109
0005078,"Halle (Saale), Einkaufspark HEP",51.454248,12.015757
0005079,"Halle (Saale), Ernst-Hermann-Meyer-Str.",51.469705,11.924573
0005081,"Bad Dürrenberg, Platz der Freiheit",51.300595,12.064715
0005082,"Halle (Saale), Pfännerhöhe",51.472111,11.983550
0005083,"Leuna, Pfalzplatz",51.327141,12.021352
0005084,"Halle (Saale), Hermannstr.",51.491641,11.965743
0005086,"Halle (Saale), Diakoniewerk Halle",51.493306,11.958232
0005087,"Halle (Saale), Diesterwegstr.",51.458875,11.946663
0005089,"Halle (Saale), Dürrenberger Str.",51.451844,12.028420
0005090,"Halle (Saale), Gottfried-Keller-Str.",51.515212,11.975085
0005092,"Halle (Saale), Genthiner Str.",51.443637,11.971492
0005093,"Halle (Saale), Eislebener Str.",51.482559,11.893544
0005094,"Halle (Saale), Etkar-André-Str.",51.498470,12.019412
0005095,"Halle (Saale), Freiimfelder Str.",51.478983,11.993992
0005096,"Halle (Saale), S-Bahnhof Dessauer Brücke",51.500106,11.984011
0005097,"Döllnitz (b. Halle), Mühlenstr.",51.411446,12.024309
0005098,"Halle (Saale), Gimritzer Damm",51.487077,11.945659
0005099,"Halle (Saale), Pfarrstr.",51.514341,11.958011
0005100,"Halle (Saale), Zum Planetarium",51.456681,12.030179
0005101,"Halle (Saale), Dautzsch",51.493882,12.023718
0005102,"Döllnitz, An der Gartenanlage",51.405943,12.033017
0005105,"Halle (Saale), Ufaer Str.",51.455120,11.947615
0005106,"Halle (Saale), Magdeburger Str.",51.484371,11.980492
0005107,"Halle (Saale), Wilhelm-Koenen-Ring",51.513506,11.920694
0005109,"Halle (Saale), Reideburg",51.483484,12.047135
0005110,"Halle (Saale), Grenzstr.",51.478643,12.003055
0005111,"Halle (Saale), Hamelner Str.",51.475802,11.897766
0005113,"Halle (Saale), Paul-Suhr-Str.",51.456799,11.961582
0005114,"Halle (Saale), Pirolweg",51.494267,11.906889
0005115,"Halle (Saale), Passendorfer Weg",51.462140,11.950529
0005116,"Halle (Saale), Böllberg",51.467009,11.956054
0005117,"Halle (Saale), Tangermünder Str.",51.473735,11.920166
0005119,"Halle (Saale), Talstr.",51.504587,11.951904
0005120,"Lieskau, Zu den Tonlöchern",51.505133,11.859175
0005122,"Halle (Saale), S-Bahnhof Neustadt",51.479292,11.921587
0005123,"Halle (Saale), Paul-Singer-Str.",51.479811,12.048013
0005124,"Schkopau, Bunawerke",51.397334,11.977499
0005125,"Halle (Saale), Franckeplatz",51.478427,11.969564
0005126,"Halle (Saale), Fontanestr.",51.473136,11.904479
0005127,"Halle (Saale), Florian-Geyer-Platz",51.425915,11.985341
0005128,"Halle (Saale), Franzigmark",51.531598,11.915164
0005129,"Halle (Saale), Guldenstr.",51.436480,11.973645
0005130,"Halle (Saale), Goldregenweg",51.462685,12.004424
0005131,"Halle (Saale), Gartenstr.",51.520615,11.909216
0005132,"Halle (Saale), Trotha",51.519165,11.957444
0005133,"Halle (Saale), Theodor-Neubauer-Str.",51.450583,11.983699
0005134,"Halle (Saale), Grenzstr. Nord",51.489690,12.001751
0005137,"Halle (Saale), Paul-Thiersch-Str.",51.477275,11.933192
0005138,"Halle (Saale), Lübecker Platz",51.442406,11.935099
0005139,"Halle (Saale), Taxusweg",51.514859,11.984731
0005140,"Halle (Saale), Auenblick",51.471815,12.030434
0005141,"Halle (Saale), Albert-Einstein-Str.",51.481666,11.926260
0005142,"Halle (Saale), Alfred-Oelßner-Str.",51.507715,11.882619
0005143,"Halle (Saale), Kröllwitz",51.508339,11.927077
0005144,"Halle (Saale), Altenburger Str.",51.477644,12.040381
0005145,"Halle (Saale), Harfenweg",51.445298,11.944176
0005146,"Halle (Saale), Krankenhaus Martha-Maria",51.503906,11.876990
0005147,"Halle (Saale), S-Bahnhof Südstadt",51.449531,11.949974
0005148,"Halle (Saale), Südfriedhof",51.462793,11.976969
0005149,"Halle (Saale), Südpark",51.469270,11.927208
0005151,"Halle (Saale), Fiete-Schulze-Str.",51.478384,12.011403
0005152,"Kirchfährendorf (Bad Dürrenberg)",51.295092,12.055456
0005153,"Halle (Saale), Fischerring",51.518451,11.917437
0005154,"Halle (Saale), Gustav-Staude-Str.",51.440992,11.965177
0005155,"Halle (Saale), Gustav-Menzel-Platz",51.484023,11.899440
0005156,"Halle (Saale), Bertolt-Brecht-Weg",51.439931,11.950233
0005157,"Lieskau, Gemeindeamt",51.505090,11.862068
0005158,"Halle (Saale), Mühlrain",51.509221,12.000240
0005159,"Halle (Saale), Tiefe Str.",51.429184,11.989351
0005160,"Halle (Saale), Wolfgang-Borchert-Str.",51.472433,11.908177
0005162,"Merseburg, Hohendorfer Marke",51.382109,11.987171
0005163,"Halle (Saale), Waldstr.",51.510545,11.910346
0005164,"Halle (Saale), Weinberg Campus",51.495362,11.939784
0005165,"Halle (Saale), Waldhornweg",51.440079,11.943279
0005166,"Halle (Saale), Turmstr.",51.463509,11.974266
0005167,"Halle (Saale), Kornblumenweg",51.506612,11.991540
0005168,"Schkopau, Korbethaer Str.",51.401736,11.974465
0005169,"Halle (Saale), Kolkturmring",51.518506,11.909428
0005170,"Halle (Saale), Kollenbeyer Weg",51.413279,11.981943
0005171,"Leuna, Krähenberg",51.317636,12.033209
0005173,"Halle (Saale), Schule Kröllwitz",51.507594,11.950672
0005174,"Halle (Saale), Schwarzenberger Str.",51.485402,12.047350
0005175,"Halle (Saale), Karl-Pilger-Str.",51.429263,11.979893
0005176,"Halle (Saale), Futterwerk",51.526449,11.936297
0005177,"Halle (Saale), Frohe Zukunft",51.509829,11.994430
0005178,"Halle (Saale), Willy-Lohmann-Str.",51.493114,11.970779
0005179,"Halle (Saale), Wiener Str.",51.455084,11.942605
0005180,"Halle (Saale), Göttinger Bogen",51.477119,11.902673
0005181,"Halle (Saale), Zscherbener Str.",51.473815,11.914053
0005182,"Halle (Saale), Freyburger Str.",51.445251,11.959942
0005183,"Halle (Saale), Schwuchtstr.",51.507739,11.938089
0005184,"Halle (Saale), Schwimmhalle",51.478830,11.915208
0005186,"Halle (Saale), Volkspark",51.496425,11.956115
0005188,"Halle (Saale), Emil-Eichhorn-Str.",51.504497,11.959029
0005189,"Halle (Saale), Ernst-Grube-Str.",51.500489,11.936110
0005190,"Halle (Saale), Küttener Weg",51.514751,11.968801
0005191,"Halle (Saale), Kurt-Tucholsky-Str.",51.473838,11.961204
0005192,"Halle (Saale), Kurt-Wüsteneck-Str.",51.431887,11.984177
0005194,"Halle (Saale), Roßlauer Str.",51.440358,11.973178
0005195,"Halle (Saale), Reideburger Str.",51.483407,12.002763
0005196,"Halle (Saale), S-Bahnhof Nietleben",51.488061,11.907012
0005197,"Halle (Saale), Schwerzer Str.",51.483414,11.996154
0005198,"Halle (Saale), Dachstr.",51.521023,11.915612
0005199,"Halle (Saale), Taucherweg",51.462836,11.962866
0005200,"Leuna, Sachsenplatz",51.323279,12.025029
0005201,"Halle (Saale), Äußere Leipziger Str.",51.477137,12.046741
0005202,"Halle (Saale), Friedhof Neustadt",51.478346,11.883904
0005203,"Halle (Saale), Seeben",51.531167,11.973460
0005204,"Halle (Saale), Melanchthonstr.",51.470047,11.968876
0005205,"Schkopau, Am Schloß",51.391799,11.984411
0005206,"Halle (Saale), Dölau",51.511480,11.879039
0005207,"Halle (Saale), S-Bahnhof Silberhöhe",51.444947,11.965591
0005208,"Halle (Saale), Saline",51.481365,11.957919
0005209,"Halle (Saale), Apoldaer Str.",51.490194,12.005600
0005210,"Halle (Saale), Vogelweide",51.456737,11.972199
0005211,"Halle (Saale), Südstadt, Paul-Suhr-Str.",51.449691,11.960748
0005213,"Halle (Saale), Am Wasserturm",51.492931,11.981180
0005214,"Halle (Saale), Am Sommerbad",51.435815,11.984232
0005215,"Halle (Saale), Wörmlitz",51.452363,11.942832
0005216,"Halle (Saale), Ammendorfer Weg",51.462741,11.956282
0005217,"Halle (Saale), Ammendorf",51.424659,11.986611
0005218,"Halle (Saale), Am Bruchsee",51.484621,11.919509
0005220,"Halle (Saale), Jasminweg",51.515222,11.978948
0005221,"Halle (Saale), Joliot-Curie-Platz",51.484859,11.973338
0005222,"Bad Dürrenberg, Kurpark (Tram)",51.298683,12.060457
0005223,"Halle (Saale), Kühlhaus",51.527593,11.932277
0005224,"Leuna, Kröllwitz",51.302755,12.041909
0005225,"Halle (Saale), Radeweller Str.",51.422494,11.996766
0005226,"Merseburg, Zentrum",51.354761,11.993029
0005227,"Halle (Saale), An der Feuerwache",51.481011,11.934080
0005228,"Halle (Saale), Ankerstr.",51.481911,11.962620
0005229,"Halle (Saale), Thüringer Str.",51.468905,11.993619
0005230,"Halle (Saale), Hechtgraben",51.514107,11.911352
0005231,"Halle (Saale), Höllweg",51.514908,12.004635
0005232,"Halle (Saale), Marktplatz",51.483031,11.969892
0005234,"Halle (Saale), Rattmannsdorfer Weg",51.457961,11.952591
0005235,"Halle (Saale), Rennbahnkreuz",51.481001,11.948810
0005236,"Halle (Saale), S-Bahnhof Steintorbrücke",51.489888,11.986296
0005237,"Halle (Saale), Am Steintor",51.490129,11.979269
0005238,"Halle (Saale), Alte Heerstr.",51.429984,11.974517
0005239,"Halle (Saale), Alfred-Schneider-Str.",51.478557,12.020745
0005240,"Halle (Saale), Alfred-Reinhardt-Str.",51.426681,11.991935
0005241,"Halle (Saale), Adolfstr.",51.497494,11.966137
0005242,"Halle (Saale), Am breiten Pfuhl",51.453190,11.972746
0005244,"Halle (Saale), Helmut-von-Gerlach-Str.",51.489885,11.999085
0005245,"Halle (Saale), S-Bahnhof Wohnstadt Nord",51.513946,11.963331
0005246,"Halle (Saale), Mörikestr.",51.511175,11.993813
0005247,"Halle (Saale), Hallmarkt",51.481879,11.965699
0005248,"Merseburg, Süd (Friedhof)",51.330106,11.976525
0005257,"Halle (Saale), Reileck",51.495293,11.966066
0005258,"Halle (Saale), Rannischer Platz",51.473960,11.969850
0005259,"Halle (Saale), Raffineriestr.",51.472985,11.988761
0005260,"Halle (Saale), Radewell",51.423776,11.992335
0005261,"Halle (Saale), MesseHandelsCentrum",51.448736,12.023106
0005262,"Halle (Saale), Binnenhafenstr.",51.524611,11.942549
0005263,"Halle (Saale), Rapsweg",51.489603,12.029253
0005264,"Halle (Saale), Seebener Str.",51.510788,11.961267
0005265,"Halle (Saale), Am Stadion",51.481607,11.911267
0005266,"Merseburg, Stadtstadion",51.376750,11.987540
0005267,"Halle (Saale), Freiheit",51.529070,11.973568
0005268,"Merseburg, Slawenweg",51.369125,11.994570
0005490,"Wurzen, Am Steinhof",51.364133,12.732004
0005635,"Kleinwethau, Goldener Rabe",51.135242,11.865357
0005636,"Naumburg (Saale), Schönburger Str.",51.151554,11.820908
0005637,"Naumburg (Saale), Linsenberg",51.153893,11.829042
0005639,"Neue Welt (Schönburg)",51.152663,11.857059
0005640,"Schönburg",51.160128,11.868688
0005641,"Possenhain (Schönburg)",51.157656,11.896715
0005642,"Stößen, Schule",51.115078,11.921119
0005643,"Droitzen (Görschen)",51.111312,11.885987
0005644,"Schmerdorf (Gieckau)",51.130321,11.900447
0005645,"Gieckau",51.136446,11.882539
0005646,"Scheiplitz (Görschen)",51.124521,11.888482
0005647,"Stößen, Zeitzer Str.",51.113368,11.925511
0005650,"Henne (Naumburg)",51.173116,11.829004
0005651,"Schellsitz (Naumburg)",51.157395,11.844770
0005652,"Eulau (Naumburg)",51.179590,11.855606
0005653,"Dobichau (Pödelist)",51.200436,11.836947
0005654,"Pödelist",51.207984,11.832673
0005655,"Großjena, Brücke (Naumburg)",51.184031,11.787871
0005656,"Freyburg (Unstrut), Ehrauberge",51.206119,11.773247
0005657,"Eulau (Naumburg), Zur Heide",51.177367,11.849061
0005659,"Naumburg (Saale), Poststr.",51.157365,11.805492
0005662,"Nöbeditz (Stößen)",51.118475,11.929434
0005664,"Naumburg (Saale), Hallesche Str./Auenblick",51.160824,11.819400
0005666,"Freyburg (Unstrut), Siedlung",51.224861,11.774904
0005667,"Zscheiplitz (Freyburg)",51.216848,11.736871
0005668,"Müncheroda (Gleina)",51.232537,11.731101
0005670,"Weischütz",51.221654,11.707319
0005671,"Dorndorf (Laucha), Abzweig",51.229434,11.681801
0005672,"Weischütz, Weinberge",51.229033,11.691056
0005673,"Altenroda (Bad Bibra)",51.239917,11.567628
0005674,"Altenroda (Bad Bibra), Siedlung",51.239675,11.561857
0005675,"Gleina, Abzweig Müncheroda",51.238846,11.738135
0005676,"Zeddenbach (Freyburg)",51.213020,11.745963
0005677,"Bucha (Burgenlandkreis), Kreuzung",51.238986,11.506965
0005678,"Zeuchfeld",51.236852,11.828303
0005679,"Schleberoda",51.235142,11.802634
0005680,"Ebersroda",51.251285,11.772628
0005681,"Ebersroda, Mühle",51.254012,11.764926
0005682,"Baumersroda (Gleina)",51.262926,11.756763
0005683,"Gleina (b. Laucha), Schule",51.257421,11.723478
0005684,"Dorndorf (Laucha)",51.233510,11.682467
0005685,"Gleina (b. Laucha)",51.256904,11.717859
0005686,"Zeisdorf (Wohlmirstedt)",51.242107,11.444027
0005687,"Wiehe, Kulturhaus",51.261444,11.424678
0005688,"Nebra (Unstrut), Bahnhof",51.283598,11.570295
0005689,"Reinsdorf (Nebra), Abzweig",51.299191,11.587644
0005691,"Reinsdorf (Burgenlandkreis), Kleinsportstätte",51.294840,11.600219
0005692,"Wippach (Altenroda)",51.252221,11.561667
0005693,"Birkigt (Altenroda), Abzweig",51.251291,11.572532
0005696,"Bad Bibra, Käserei",51.208882,11.589245
0005701,"Halle (Saale), Meisenweg",51.459171,11.961995
0005702,"Halle (Saale), Haflingerstr.",51.477042,11.939656
0005704,"Merseburg, Carl-von-Basedow-Klinikum",51.364725,11.994355
0005705,"Halle (Saale), Carl-Schorlemmer-Ring",51.485034,11.922069
0005706,"Halle (Saale), Ottostr.",51.457131,11.990977
0005708,"Halle (Saale), Camillo-Irmscher-Str.",51.439975,11.990344
0005709,"Halle (Saale), Chemiestr.",51.434976,11.988579
0005710,"Bad Bibra, Verwaltungsamt",51.204911,11.585072
0005715,"Halle (Saale), Heinrich-Schütz-Str.",51.469007,11.981850
0005716,"Halle (Saale), Steinweg",51.476575,11.969919
0005719,"Halle (Saale), Rennbahnring",51.479634,11.944560
0005721,"Halle (Saale), Bremer Str.",51.444697,11.944468
0005722,"Halle (Saale), Kurallee",51.504203,11.966775
0005723,"Halle (Saale), Prager Str.",51.447309,11.943572
0005727,"Zscherben, Am Bruchfeld",51.471116,11.882872
0005728,"Halle (Saale), Glauchaer Platz",51.479299,11.965647
0005729,"Halle (Saale), Gottfried-Lindner-Str.",51.437551,11.992646
0005730,"Halle (Saale), Am Leipziger Turm",51.478453,11.977024
0005731,"Halle (Saale), Gartenstadt Nietleben",51.491193,11.909026
0005733,"Zscherben, Schanzkorb",51.471881,11.878112
0005734,"Halle (Saale), Nachtigallensteig",51.493027,11.909388
0005737,"Halle (Saale), Mustangweg",51.476422,11.937471
0005738,"Halle (Saale), Pflaumenweg",51.458048,12.005746
0005739,"Halle (Saale), Am Heidesee",51.489855,11.903555
0005764,"Landsberg (Saalekreis), Bahnhof",51.531522,12.165540
0005887,"Auenhain (Markkleeberg), Kanupark",51.255862,12.427494
0005919,"Kleinwethau, Am Zeitzer Wege",51.134453,11.863794
0006010,"Glesien (Schkeuditz), Werlitzscher Str.",51.441837,12.213324
0007552,"Kayna, Schule",50.993173,12.234494
0007571,"Weißenfels, Markwerbener Str. I",51.207569,11.961525
0007572,"Weißenfels, Selauer Str. I",51.199898,11.988797
0007573,"Langendorf (b. Weißenfels), Klosterkirche",51.182913,11.963062
0007575,"Gerstewitz (Zorbau), L",51.190123,12.036297
0007576,"Langendorf (b. Weißenfels), Bornberg",51.174595,11.953846
0007579,"Weißenfels, Betriebshof",51.199803,11.992526
0007600,"Rasberg, Gartenanlage (Zeitz)",51.034636,12.131540
0007601,"Zeitz, Klinikum",51.031830,12.157603
0007602,"Zeitz, Forststr.",51.042477,12.120445
0007603,"Zeitz, Forstplatz",51.046016,12.123607
0007644,"Tornau (Dübener Heide), Schwemsaler Str.",51.636702,12.588270
0009353,"Halle (Saale), Heinrich-Lammasch-Platz",51.496886,11.923779
0009354,"Halle (Saale), Hallorenstr.",51.481143,11.928818
0009523,"Sautzschen (Haynsburg)",51.022675,12.055286
0009533,"Bad Düben (Mulde), Vorteilkauf",51.612971,12.567086
0009566,"Brachwitz, Am Schlossberg",51.545144,11.888043
0009567,"Wallwitz (Saalekreis), Grundschule",51.578836,11.929935
0009568,"Beesenstedt (Salzatal), Kirchplatz",51.570007,11.737214
0009569,"Sietzsch, Poststr.",51.490282,12.180035
0009570,"Sietzsch, Mittelstr.",51.488202,12.173524
0009571,"Schiepzig, Seepark Nelkenstr.",51.525243,11.853373
0009572,"Brachwitz, Am Burgwall",51.538474,11.877759
0009579,"Köllme, Abzweig",51.504577,11.814567
0009581,"Kuckenburg, Abzweig",51.409506,11.645050
0009582,"Albersroda",51.284346,11.718147
0009583,"Alberstedt, Feuerwehr",51.446611,11.622995
0009584,"Möderau, Abzweig",51.560026,11.914098
0009585,"Alberstedt, Siedlung",51.448888,11.627701
0009586,"Plötz, Abzweig",51.637085,11.936089
0009588,"Almsdorf (Mücheln)",51.258608,11.861651
0009589,"Altweidenbach (Obhausen)",51.382914,11.660871
0009590,"Angersdorf, An der Feuerwache",51.458631,11.907126
0009591,"Angersdorf, Kali",51.456230,11.881660
0009592,"Angersdorf, Mühlberg",51.456583,11.899800
0009593,"Angersdorf, Siedlung",51.452993,11.902062
0009594,"Angersdorf, Wilhelmshöhe",51.461600,11.909201
0009595,"Asendorf, Obhäuser Str.",51.413078,11.734925
0009596,"Atzendorf (Geusa), Abzweig",51.341327,11.956653
0009599,"Bad Dürrenberg, Engelsschule",51.293211,12.070633
0009602,"Bad Lauchstädt, Bahnhof",51.389200,11.871221
0009603,"Bad Lauchstädt, Roter Platz",51.385115,11.870246
0009604,"Bad Lauchstädt, Lindenstr.",51.388142,11.868539
0009605,"Bad Lauchstädt, Markt",51.387360,11.867772
0009606,"Bad Lauchstädt, Am Schloss",51.387594,11.864840
0009608,"Balditz (Bad Dürrenberg)",51.290338,12.081755
0009609,"Barnstädt, Schule",51.344157,11.641742
0009611,"Bennstedt (Salzatal), Abzweig B80",51.475559,11.823390
0009615,"Beuna, Bahnhof",51.323556,11.961808
0009616,"Beuna, Kindergarten",51.322353,11.955001
0009617,"Beuna, Volkshaus",51.320828,11.949178
0009618,"Bad Lauchstädt, Hallesche Str.",51.391008,11.871176
0009619,"Biendorf (Mücheln)",51.301408,11.831240
0009621,"Blösien, Dorfplatz",51.333068,11.920010
0009622,"Blösien, Bergmannsring",51.331936,11.924631
0009624,"Branderoda, Ort",51.263521,11.812945
0009625,"Branderoda, Siedlung",51.266980,11.812655
0009626,"Schkopau, Am Königsborn",51.391828,11.982574
0009627,"Braunsbedra, Atlantis",51.285687,11.875651
0009628,"Bad Lauchstädt, Zentrales Umspannwerk",51.406172,11.888874
0009629,"Braunsbedra, Friedhof",51.287153,11.899329
0009630,"Braunsbedra, Grundschule",51.286094,11.884308
0009631,"Bageritz (Landsberg), Bageritzer Ring",51.480911,12.163859
0009632,"Braunsbedra, Parksiedlung",51.283681,11.881533
0009633,"Braunsbedra, Zentrum",51.284900,11.887875
0009634,"Braunsbedra, Neumark",51.293491,11.871636
0009637,"Bündorf (Knapendorf)",51.372595,11.920601
0009639,"Burgliebenau",51.391166,12.044613
0009640,"Burgstaden",51.368457,11.878971
0009643,"Beidersee (Morl), An der B6",51.566103,11.906524
0009646,"Beidersee (Morl), Bahnhofstr.",51.565766,11.905248
0009648,"Benkendorf (Salzmünde), Quillschinaer Str.",51.515520,11.822346
0009650,"Benkendorf (Teutschenthal), Merseburger Str.",51.427806,11.917062
0009652,"Benndorf (Saalekreis), Am Teich",51.442212,12.095589
0009654,"Bennewitz (Kabelsketal), An der Reichsbahn",51.436807,12.097999
0009655,"Delitz, Freiheitstr.",51.417711,11.902888
0009656,"Döcklitz (Obhausen)",51.404812,11.623519
0009657,"Dölkau (Zweimen)",51.360904,12.147531
0009660,"Schladebach, Domäne",51.315861,12.107685
0009661,"Dornstedt, Steudener Str.",51.411599,11.744757
0009662,"Beuditz (Kabelsketal), Rabutzer Weg",51.420368,12.171680
0009663,"Dörstewitz (Knapendorf)",51.396240,11.918099
0009664,"Beuditz (Kabelsketal), Am Dorfplatz",51.420744,12.179040
0009666,"Eisdorf (Teutschenthal), Pappelgrund",51.461187,11.844407
0009670,"Bolzenhöhe, Str. des Friedens",51.519032,11.747599
0009671,"Brachstedt, Alter Dorfplatz",51.570319,12.051631
0009672,"Brachstedt Am Sportplatz",51.569061,12.048142
0009673,"Brachwitz, Platz der Jugend",51.537347,11.870191
0009675,"Braschwitz, Am alten Teich",51.521789,12.057693
0009676,"Merseburg, EKZ "Hohendorfer Marke"",51.381274,11.986772
0009677,"Braschwitz, Saarbrücker Str.",51.517091,12.059597
0009678,"Ermlitz, An der Mühle",51.391010,12.162102
0009679,"Esperstedt (b. Querfurt)",51.424198,11.672689
0009680,"Etzdorf, Alte Hauptstr.",51.430321,11.759529
0009681,"Ermlitz, Pestalozzistr.",51.391111,12.157007
0009682,"Halle (Saale), Schmelzerstr.",51.444289,12.030970
0009683,"Farnstädt, Kaufhalle",51.429291,11.572529
0009684,"Farnstädt, Schule",51.431300,11.573159
0009685,"Feldschlösschen (Tollwitz)",51.287200,12.123442
0009687,"Querfurt, Fichtensiedlung",51.373556,11.584943
0009688,"Frankleben, Kastanienstr.",51.314265,11.936992
0009690,"Merseburg, Freiimfelde, Autohaus",51.383670,11.986238
0009692,"Dalena, Edlauer Str.",51.645765,11.844683
0009694,"Dammendorf, Zum Park",51.576366,12.130851
0009697,"Friedensdorf",51.350492,12.063839
0009698,"Friedensdorf, Abzweig",51.359377,12.060325
0009699,"Merseburg, West, Kleeblatt",51.358440,11.978866
0009700,"Merseburg, West, Gustav-Adolf-Str.",51.351519,11.978445
0009701,"Delitz, Gartenstr.",51.414950,11.900729
0009706,"Deutleben, Deutlebener Hauptstr.",51.598468,11.841666
0009708,"Gatterstädt (Querfurt), Große Str.",51.401364,11.551298
0009709,"Gatterstädt (Querfurt), Kaufhalle",51.401791,11.542411
0009710,"Dobis, Rothenburger Str.",51.613657,11.767018
0009712,"Döblitz, Am Saalebogen",51.557368,11.830304
0009713,"Geusa, Dorfplatz",51.337749,11.939499
0009714,"Geusa, Schule",51.335805,11.941011
0009716,"Geusa",51.339687,11.947174
0009717,"Dölbau, Am Pfaffengraben",51.466917,12.058741
0009720,"Merseburg, Gewerbegebiet Nord",51.372706,11.973314
0009722,"Merseburg, Süd, Glückaufstr.",51.332425,11.989607
0009723,"Döllnitz (b. Halle), Mafa",51.415728,12.034283
0009725,"Goddula (Bad Dürrenberg)",51.274346,12.066908
0009726,"Göhren (Zweimen)",51.355086,12.136161
0009727,"Göhren (Zweimen), Abzweig",51.352102,12.136776
0009728,"Domnitz, An der B6",51.629681,11.833925
0009729,"Göhrendorf",51.354537,11.655822
0009732,"Grockstädt",51.328196,11.579434
0009733,"Dornstedt, Schule",51.410731,11.747250
0009734,"Großgräfendorf (Bad Lauchstädt)",51.394017,11.818017
0009735,"Dößel, Hamstergasse",51.615060,11.793950
0009736,"Großkayna",51.290901,11.934711
0009737,"Drehlitz, Dorfplatz",51.603588,11.965660
0009739,"Drobitz, Petersberger Str.",51.599733,11.992478
0009741,"Droysig (Reußen), Reußener Str.",51.497600,12.105999
0009743,"Gröst",51.260388,11.851745
0009744,"Günthersdorf (Leuna), IKEA",51.348210,12.180373
0009745,"Eisdorf (Teutschenthal), Hallesche Str.",51.457468,11.823438
0009747,"Eisdorf (Teutschenthal), Mühlberg",51.461292,11.817744
0009748,"Günthersdorf (Leuna), Sonnenweg",51.339764,12.168548
0009749,"Günthersdorf (Leuna), Schäferei",51.344628,12.171554
0009750,"Günthersdorf (Leuna), Kötschlitz Abzweig",51.347386,12.172290
0009751,"Eisdorf (Teutschenthal), Bahnhof",51.464605,11.820899
0009756,"Halle (Saale), Radewell, Karl-Meißner-Str.",51.422664,11.999956
0009762,"Merseburg, Freiimfelde, Hansastr.",51.382579,11.979299
0009766,"Eismannsdorf, Zum Dorfplatz",51.566136,12.093894
0009769,"Horburg",51.365522,12.172640
0009770,"Merseburg, West, Ikarusstr.",51.357180,11.977175
0009772,"Jüdendorf (Steigra), Schnellrodaer Str.",51.310978,11.692825
0009775,"Kalzendorf (Steigra)",51.302052,11.677070
0009779,"Kauern, Am Johannisanger (Tollwitz)",51.280388,12.104743
0009780,"Kauern (Tollwitz)",51.280072,12.113238
0009781,"Merseburg, Kaufland",51.372095,11.978244
0009785,"Kleineichstädt (Grockstädt)",51.326470,11.553565
0009786,"Klein Gräfendorf (Milzau)",51.365243,11.862640
0009788,"Kleinkorbetha",51.255404,12.045471
0009789,"Kleinlauchstädt (Bad Lauchstädt)",51.383975,11.883695
0009791,"Merseburg, Gotthardstr.",51.353979,11.993395
0009792,"Klobikau, Schule",51.354602,11.847703
0009793,"Knapendorf",51.372755,11.943280
0009794,"Knapendorf, Gartenanlage",51.372874,11.942483
0009795,"Knapendorf, Str. der Freundschaft",51.375326,11.937195
0009796,"Kollenbey (Schkopau)",51.394931,12.004693
0009799,"Korbetha, Dorfstr.",51.404222,11.963989
0009800,"Friedrichschwerz, Coloniestr.",51.549610,11.855101
0009801,"Kötschlitz",51.355157,12.169553
0009802,"Frößnitz (Petersberg), Köthener Str",51.586704,11.944210
0009805,"Kötzschau, Bahnhof",51.306109,12.125444
0009806,"Kötzschau, Merseburger Str.",51.313073,12.127611
0009808,"Kötzschau, Mühle",51.310194,12.125019
0009809,"Löbejün, Gärtnerei Ackermann",51.638880,11.927218
0009810,"Kötzschau, Schule",51.311314,12.124823
0009812,"Kötzschen, Kirche",51.326427,11.971996
0009814,"Krakau (Milzau)",51.363652,11.858548
0009816,"Kreypau, Wüsteneutzscher Str.",51.329451,12.045988
0009817,"Kreypau, Abzweig",51.357480,12.033402
0009818,"Kreypau, Merseburger Str.",51.328720,12.045753
0009822,"Krumpa, Addinol",51.295728,11.849663
0009823,"Krumpa, Hauptstr.",51.297482,11.844063
0009824,"Krumpa, Schule",51.296302,11.845625
0009826,"Halle (Saale), Hans-Dietrich-Genscher-Str.",51.478945,12.095097
0009827,"Merseburg, Freiimfelde, Ladegaststr.",51.379284,11.985119
0009828,"Landgrafroda (Ziegelroda)",51.351629,11.428779
0009829,"Queis, Geltestr./Gewerbegebiet",51.473067,12.089199
0009831,"Langeneichstädt, Kulturhaus",51.344742,11.741791
0009832,"Queis, Queiser Ring/Gewerbegebiet",51.474039,12.092576
0009833,"Langeneichstädt, Schule",51.346737,11.742973
0009834,"Queis, Siemens/Gewerbegebiet",51.475271,12.098361
0009835,"Queis, Priemitzstr./Gewerbegebiet",51.476282,12.085616
0009836,"Gimritz, Wettiner Landstr.",51.566822,11.870779
0009838,"Leiha (Roßbach)",51.262985,11.874906
0009841,"Leimbach (b. Querfurt), Ortsmitte",51.361387,11.548687
0009842,"Leimbach (b. Querfurt), Kreuzung",51.355338,11.547389
0009843,"Gödewitz, Pfützthaler Str.",51.541234,11.802066
0009844,"Leimbach (b. Querfurt), Ort",51.360566,11.545956
0009848,"Gollma (Landsberg), Delitzscher Str.",51.515824,12.169191
0009850,"Görbitzer Dorfstr.",51.576632,11.876607
0009851,"Lennewitz (Bad Dürrenberg)",51.307190,12.065915
0009852,"Leuna, Einsteinstr.",51.326717,12.023821
0009853,"Gottenz, Thomas-Müntzer Str.",51.450272,12.132642
0009854,"Leuna, Lindenplatz",51.332450,12.004076
0009855,"Gottgau Mühlenstr.",51.643911,11.896228
0009856,"Gröbers, Parkweg",51.437943,12.117210
0009858,"Gröbers, Gewerbegebiet",51.444121,12.132335
0009859,"Leuna, Rathaus",51.323608,12.024104
0009860,"Gröbers, Sparkasse",51.430024,12.118137
0009861,"Leuna, Leuna 2000",51.280573,11.985376
0009863,"Liederstädt, Ambulanz (Vitzenburg)",51.306544,11.583224
0009864,"Gröbers, Schule",51.428631,12.118460
0009865,"Liederstädt, Feuerwehr",51.309349,11.579552
0009868,"Lochau (b. Halle), Abzweig Burgliebenau",51.398298,12.048709
0009869,"Lochau (b. Halle), Gröberssche Str.",51.397353,12.056307
0009871,"Raßnitz, Kieswerk",51.393046,12.078282
0009872,"Lochau (b. Halle), Sportplatz",51.399924,12.045972
0009873,"Großkugel, Beuditzer Weg",51.418522,12.159128
0009874,"Lodersleben",51.376784,11.545132
0009875,"Großkugel, Teich",51.417919,12.148474
0009876,"Lodersleben, Brauner Hirsch",51.379150,11.533067
0009877,"Lösau, Ort (Dehlitz)",51.223921,12.027984
0009880,"Grube Ferdinande, An der B6",51.542977,11.930440
0009883,"Luppenau, Löpitz",51.367171,12.043135
0009884,"Luppenau, Lössen",51.372954,12.039281
0009885,"Luppenau, Tragarth",51.361873,12.053584
0009887,"Lützen, Bad",51.259919,12.140263
0009889,"Markranstädt, Markt",51.301576,12.220950
0009890,"Gutenberg, Schule",51.546357,11.966549
0009891,"Gutenberg, Dorfstr.",51.546693,11.971762
0009893,"Gütz Otto-Quandt-Str.",51.532868,12.147613
0009895,"Maßlau",51.370112,12.178114
0009896,"Merseburg, Albrecht-Dürer-Str.",51.354781,11.983080
0009897,"Merseburg, Fliederweg",51.349010,11.983767
0009898,"Merseburg, Hälterstr.",51.358680,11.996947
0009899,"Merseburg, Herdergymnasium",51.351332,11.998090
0009900,"Merseburg, Rischmühleninsel",51.353842,12.002605
0009901,"Merseburg, Rosental",51.361981,11.996172
0009902,"Merseburg, Lessingstr. bzw. Schwimmhalle",51.342768,11.997573
0009904,"Merseburg, Triebelstr./Am Stadtpark",51.370487,11.989474
0009907,"Merseburg, Zentralfriedhof",51.342252,11.960244
0009908,"Meuschau, Autohaus",51.359574,12.014655
0009910,"Meuschau, Gärtnerei",51.363512,12.012544
0009911,"Meuschau, Gewerbegebiet",51.361308,12.021663
0009912,"Meuschau, Teich",51.365995,12.010050
0009913,"Milzau, Abzweig",51.375742,11.905430
0009914,"Milzau, Milzauer Str.",51.376033,11.900952
0009917,"Mücheln (Geiseltal), EKZ",51.294221,11.814221
0009918,"Mücheln (Geiseltal), Grundschule",51.303263,11.811346
0009920,"Mücheln, Arthur-Scheibner-Str.",51.296804,11.813002
0009921,"Mücheln (Geiseltal), Bürgermeister-Fritsch-Str.",51.300016,11.809541
0009923,"Mücheln (Geiseltal), Tankstelle",51.304562,11.813405
0009924,"Mücheln (Geiseltal), Viadukt",51.305007,11.810592
0009931,"Nempitz",51.288485,12.147605
0009932,"Nempitz, Schulstr.",51.289695,12.150757
0009933,"Nemsdorf, Kulturhaus",51.363004,11.659486
0009934,"Nemsdorf, Verwaltung",51.358399,11.664705
0009935,"Neumark Nord",51.334072,11.888584
0009936,"Neuweidenbach, Siedlung",51.381201,11.692106
0009937,"Niederklobikau, Alte Feuerwehr",51.356079,11.846890
0009938,"Niederklobikau, Fleischer",51.353990,11.842553
0009940,"Halle (Saale), Angerstr.",51.524139,11.956657
0009941,"Niederschmon (Schmon), Chaussehaus",51.334777,11.572469
0009942,"Niederschmon (Schmon), B250",51.343895,11.568300
0009944,"Niederschmon (Schmon), Ort",51.344213,11.564859
0009945,"Niederschmon (Schmon), Schule",51.345497,11.565332
0009946,"Niederwünsch, Mitte",51.351560,11.798639
0009947,"Niederwünsch, Ortseingang",51.349996,11.803526
0009949,"Merseburg, Nulandplatz",51.351142,11.993899
0009950,"Oberklobikau",51.351060,11.832149
0009953,"Oberschmon",51.345918,11.548158
0009954,"Oberthau",51.387241,12.144109
0009955,"Oberwünsch",51.351032,11.783086
0009956,"Obhausen (Bus)",51.391690,11.654871
0009957,"Hohen, Dorfstr.",51.566880,12.066938
0009958,"Obhausen, Kindergarten",51.393356,11.659494
0009959,"Hohenthurm, Alte Bahnhofstr.",51.520821,12.097982
0009961,"Hohenthurm, Schule",51.515085,12.095575
0009962,"Obhausen, Abzweig",51.409839,11.644638
0009963,"Hohenweiden, Str. des Friedens",51.421276,11.938374
0009964,"Öchlitz",51.322534,11.761343
0009965,"Höhnstedt, Am Landrain",51.504469,11.742545
0009968,"Holleben Ausbildungszentrum",51.430840,11.906410
0009969,"Holleben Karl-Liebknecht-Str.",51.445633,11.900861
0009971,"Holleben, Mühlenstr.",51.439142,11.899759
0009972,"Ostrau (Bad Dürrenberg), Abzweig",51.310099,12.066424
0009973,"Holleben Lutherplatz",51.435868,11.902688
0009974,"Pissen (Rodden)",51.325220,12.151744
0009975,"Pretitz (Vitzenburg)",51.306261,11.563372
0009976,"Pritschöna",51.391781,12.089105
0009977,"Merseburg, West, Quantzstr.",51.354638,11.974943
0009978,"Kaltenmark, Hallesche Str.",51.618106,11.943615
0009979,"Querfurt, Pappelstr.",51.376273,11.613611
0009981,"Kaolinwerk Brachwitzer Str. (Morl)",51.551129,11.894710
0009984,"Querfurt, Schluckspecht",51.388493,11.607066
0009986,"Quesitz (Markranstädt), Gasthof",51.290866,12.199378
0009987,"Ragwitz",51.274979,12.110328
0009988,"Rampitz",51.302784,12.130411
0009989,"Rampitz (Kötzschau), Abzweig",51.287573,12.122937
0009992,"Braschwitz, Zöberitzer Weg",51.519604,12.051508
0009996,"Merseburg, Nord, Reuterstr.",51.370951,11.988570
0009997,"Kleinkugel, Teichstr.",51.458343,12.068544
0010000,"Klepzig (Landsberg), Zwebendorfer Str.",51.483109,12.120450
0010001,"Röblingen am See, EKZ",51.451951,11.670742
0010002,"Röblingen am See, Güterbahnhof",51.462700,11.667326
0010003,"Röblingen am See, Schraplauer Str.",51.458158,11.671364
0010004,"Rodden",51.333721,12.161614
0010005,"Röglitz",51.399850,12.129249
0010007,"Kneipe, Köthener Str.",51.572128,12.143762
0010008,"Köchstedt, Anger",51.475083,11.799778
0010009,"Roßbach, Leihaer Str.",51.264079,11.882699
0010010,"Kockwitz (Queis), Am Teich",51.475584,12.112348
0010016,"Rübsen",51.390951,12.172891
0010019,"Kösseln, Ernst-Thälmann-Str.",51.640922,11.977534
0010029,"Schadendorf (Milzau)",51.366697,11.870803
0010030,"Schafsee (Schraplau)",51.431781,11.651169
0010031,"Schafstädt, August-Meisel-Str.",51.383892,11.782006
0010032,"Schafstädt, Schule",51.380538,11.770639
0010036,"Krimpe, Am Kirschberg",51.523976,11.754498
0010037,"Schkopau, Schulstr.",51.390902,11.981895
0010038,"Krosigk, Am Mühlteich",51.610714,11.935050
0010040,"Krosigk, Neue Häuser",51.611305,11.917514
0010042,"Schladebach",51.319444,12.115303
0010043,"Merseburg, Merse-Center",51.370986,11.984378
0010044,"Schmirma (Öchlitz)",51.315269,11.778093
0010045,"Schnellroda (Albersroda)",51.295554,11.712112
0010046,"Schortau (Braunsbedra)",51.274767,11.872188
0010047,"Kütten, Christian-Reuter-Platz",51.588704,12.001163
0010048,"Schotterey (Bad Lauchstädt)",51.391609,11.842874
0010049,"Schotterey (Bad Lauchstädt), Frohndorfer Str.",51.390651,11.845675
0010050,"Schraplau (Bus)",51.438117,11.663131
0010051,"Landsberg (Saalekreis), Am Markt",51.525048,12.159555
0010054,"Schraplau, Siedlung",51.436046,11.656537
0010055,"Landsberg (Saalekreis), Schule",51.525740,12.169232
0010056,"Merseburg, Nord, Schule",51.364971,11.985092
0010057,"Landsberg (Saalekreis), Otto-Quandt-Str.",51.528787,12.151929
0010058,"Merseburg, West, Siegweg",51.351683,11.974450
0010060,"Langenbogen, Str. der Jugend",51.482987,11.778534
0010061,"Spergau",51.294214,12.024537
0010063,"Spergau, Kühltürme",51.301344,12.020689
0010064,"Leuna, Spergauer Tor",51.307778,12.019089
0010065,"Spielberg (Grockstädt)",51.319763,11.585947
0010068,"St. Micheln (Mücheln)",51.293801,11.778001
0010070,"Stedten, Briese",51.442700,11.693105
0010071,"Steuden, Dorfanger",51.420590,11.765729
0010072,"Stöbnitz, Werkstr. (Mücheln, Geiseltal)",51.324790,11.807483
0010074,"Mücheln (Geiseltal), St. Ulrich",51.299077,11.793178
0010077,"Teutschenthal, Bäckerei Boltze",51.449355,11.801152
0010078,"Lettewitz, Wettiner Str.",51.582369,11.862235
0010079,"Teutschenthal, Str. des Friedens",51.453916,11.814887
0010081,"Teutschenthal, Kulturhaus",51.446363,11.795013
0010083,"Thalschütz",51.295745,12.128038
0010086,"Tollwitz, Abzweig",51.289402,12.100161
0010087,"Tollwitz, Johann-Trommsdorff-Str.",51.286256,12.098415
0010088,"Tollwitz, Linde",51.281698,12.101448
0010089,"Luppenau, Abzweig Tragarth",51.359038,12.052677
0010090,"Trebnitz (Merseburg)",51.347511,12.026727
0010091,"Lieskau, Waldheil",51.492797,11.871725
0010092,"Trebnitz, Abzweig (Merseburg)",51.347693,12.030802
0010093,"Trebnitz, Merseburger Str. (Merseburg)",51.354038,12.034021
0010095,"Löbejün, Kochstor",51.637256,11.906856
0010096,"Löbejün, An der Stadtmauer",51.635883,11.899125
0010097,"Löbejün, Am Mühlenfeld",51.638332,11.899701
0010099,"Unterfarnstädt",51.428442,11.585770
0010100,"Unterkriegstedt (Milzau)",51.370845,11.884938
0010101,"Wesenitz (Lochau)",51.394238,12.068848
0010102,"Merseburg, Nord, Gagfah-Siedlung",51.361022,11.986573
0010103,"Vitzenburg, Abzweig",51.302560,11.587748
0010104,"Merseburg, August-Bebel-Str.",51.359228,11.987103
0010105,"Lohnsdorf, Parkstr.",51.499962,12.172541
0010106,"Vitzenburg, Ort",51.300681,11.571049
0010107,"Vitzenburg, Parkstr.",51.300476,11.568915
0010108,"Wallendorf (Luppe), Anker",51.359235,12.070584
0010109,"Wallendorf (Luppe), Bergschänke",51.358044,12.085770
0010111,"Wehlitz, Ermlitzer Str.",51.390498,12.183954
0010124,"Merbitz, Löbejüner Str.",51.614964,11.886252
0010126,"Weißenschirmbach",51.313147,11.548593
0010133,"Merseburg, Bahnhof",51.355635,11.991205
0010135,"Weßmar",51.394156,12.108768
0010137,"Merseburg, Nord, Denkmalhof",51.365723,11.990499
0010138,"Witzschersdorf",51.320904,12.135046
0010139,"Wölkau (Kreypau), Wüsteneutzscher Str.",51.316044,12.060508
0010140,"Wölkau (Kreypau), Wölkauer Landstr.",51.316006,12.060577
0010141,"Merseburg, Werner-Seelenbinder-Str.",51.367853,11.985251
0010142,"Wüsteneutzsch",51.325731,12.070324
0010145,"Zingst (Vitzenburg)",51.294251,11.564552
0010146,"Zöllschen",51.272723,12.118733
0010147,"Zöschen, An der B181",51.356751,12.116902
0010148,"Zöschen, Schule",51.358139,12.120515
0010150,"Zschöchergen (Kötschlitz)",51.348730,12.156847
0010151,"Zschöchergen, Abzweig (Kötschlitz)",51.346427,12.154578
0010152,"Zweimen",51.361580,12.140784
0010153,"Möderau, Lindenstr.",51.562282,11.922797
0010154,"Mösthinsdorf, Möster Hauptstr.",51.639379,12.022775
0010155,"Mücheln, Lettewitzer Str.",51.577564,11.832050
0010156,"Mücheln (Geiseltal), Bahnhof/See",51.307757,11.805424
0010157,"Müllerdorf (Zappendorf), Mühlenstr.",51.510784,11.791119
0010158,"Müllerdorf (Zappendorf), Seniorenheim",51.509876,11.796394
0010159,"Nauendorf (Saalekreis), Schule",51.604536,11.885128
0010161,"Naundorf (b. Halle), Feuerwehr",51.463216,12.072326
0010162,"Naundorf (b. Halle), Grünstr.",51.465094,12.067572
0010163,"Naundorf (b. Halle), Kita",51.462090,12.076885
0010164,"Naundorf (b. Halle), Alte Schulstr.",51.461714,12.077162
0010165,"Nehlitz Rotes Haus",51.573829,11.950678
0010166,"Hohenweiden, Fleischergasse",51.422832,11.935497
0010168,"Neutz, Hallesche Str.",51.605536,11.839740
0010169,"Niemberg, Alte Gärtnerei",51.550758,12.094695
0010170,"Plößnitz (Braschwitz), Ethel-Rosenberg-Str.",51.535078,12.062174
0010171,"Niemberg, Schule",51.553088,12.103161
0010172,"Maschwitz Siedlung",51.534106,12.025852
0010173,"Oppin, Flugplatz",51.547239,12.058521
0010174,"Oppin Maschwitzer Str.",51.551623,12.033043
0010175,"Oppin, Gutenberger Str.",51.552186,12.026923
0010176,"Oppin, Schmiede",51.552753,12.026196
0010177,"Osmünde, Gottenzer Str.",51.445845,12.114569
0010178,"Osmünde, Naundorfer Str.",51.448106,12.115082
0010179,"Osmünde, Birkenweg",51.443804,12.112876
0010181,"Ostrau (Saalekreis), Schloss",51.617704,12.010458
0010183,"Peißen (Saalekreis), Abzweig B100",51.512986,12.062564
0010185,"Peißen (Saalekreis), Schule",51.503092,12.057895
0010186,"Petersberg (Saalekreis), Siedlung",51.594760,11.965633
0010187,"Petersberg (Saalekreis), Grüne Gasse",51.593461,11.952615
0010188,"Petersberg (Saalekreis), Steinbruch",51.594210,11.940712
0010190,"Plößnitz (Braschwitz), Maschwitzer Weg",51.534512,12.060781
0010191,"Plößnitz (Braschwitz), FRANKONIA",51.537318,12.061445
0010192,"Plötz, Dorfplatz",51.637211,11.940403
0010193,"Plötz, Kreisstr.",51.638110,11.952223
0010195,"Priester, Alte Dorfstr.",51.597286,11.897300
0010197,"Queis, Am Teich",51.476046,12.133099
0010198,"Queis, Neubau",51.477990,12.127660
0010201,"Quillschina, Lindenstr.",51.520278,11.810679
0010202,"Räther, Zum Schäferstein",51.521748,11.732155
0010203,"Rattmannsdorf, Wasserweg",51.411548,11.948030
0010205,"Halle (Saale), Reideburg, Siedlung",51.479371,12.063477
0010206,"Reinsdorf (b. Halle/Saale), Friedensplatz",51.512239,12.157097
0010207,"Reipisch, Abzweig (Frankleben)",51.315764,11.943544
0010208,"Reußen Bahnhofstr.",51.501103,12.133493
0010209,"Rockendorf Feldrain",51.423695,11.926148
0010211,"Rothenburg (b. Könnern), Saalberg",51.644511,11.753711
0010212,"Rothenburg (b. Könnern), Sportplatz",51.648626,11.767184
0010213,"Rothenburg (b. Könnern), Werk",51.642342,11.748059
0010216,"Salzmünde, Kreuzung",51.524866,11.827364
0010220,"Schachtberg, Wettiner Str.",51.607547,11.806613
0010221,"Schiepzig, Ziegeleiweg",51.526306,11.848107
0010222,"Schiepzig, Abzweig Neuragoczy",51.523151,11.871272
0010223,"Schiepzig, Seepark",51.524356,11.858045
0010226,"Schlettauer Hauptstr.",51.653005,11.881068
0010227,"Schochwitz, Schloßplatz",51.529331,11.752731
0010229,"Schochwitz, Raiffeisen",51.527456,11.754852
0010231,"Schwerz, Zum Teich",51.564229,12.132166
0010234,"Schwoitsch, Brunnenplatz",51.436190,12.127635
0010235,"Sennewitz, Karl-Liebknecht-Str.",51.542706,11.957703
0010236,"Sennewitz, Am Tonloch",51.537962,11.955420
0010237,"Sennewitz, Neubau",51.538859,11.951585
0010238,"Sennewitz, Schule",51.541830,11.953551
0010239,"Sennewitz, Am Kirschrain",51.542032,11.946990
0010242,"Spickendorf, Lange Str.",51.548844,12.132911
0010243,"Sylbitz, Beiderseer Str.",51.577724,11.909604
0010244,"Teicha, Bahnhof",51.554203,11.958493
0010245,"Teicha, Löbnitzer Weg",51.565512,11.957467
0010246,"Teicha, Schulstr.",51.558907,11.954846
0010247,"Teutschenthal, Bahnhof, Poststr.",51.465797,11.783491
0010248,"Teutschenthal, Bahnhof, Kindergarten",51.470589,11.783466
0010249,"Teicha, Bahnhofstr.",51.554059,11.953854
0010250,"Teutschenthal, Park",51.442768,11.786679
0010251,"Teutschenthal, Schule",51.453379,11.803917
0010252,"Teutschenthal, Sparkasse",51.450189,11.808369
0010254,"Maschwitz, Am unteren Teich",51.532409,12.033077
0010255,"Wallwitz (Saalekreis), Schule",51.582053,11.924961
0010256,"Werderthauer Dorfstr.",51.624079,11.998516
0010258,"Wettin, Könnersche Str.",51.588998,11.798772
0010259,"Wettin, Neutzer Str.",51.589671,11.804110
0010260,"Wettin, Mühlgasse",51.586753,11.806932
0010261,"Wettin, Saalestr.",51.581987,11.813767
0010262,"Wettin, Schweizerling",51.590442,11.790995
0010263,"Wiedersdorf, Bietauer Str.",51.469074,12.122126
0010265,"Wils, Fienstedter Str.",51.529722,11.780358
0010266,"Wölls-Petersdorf (Spickendorf), Querweg",51.538368,12.134973
0010267,"Wölls-Petersdorf (Spickendorf), Neubau",51.541517,12.133532
0010268,"Wurp, Mühlenstr.",51.563024,12.051762
0010269,"Zappendorf, Fleischerstr.",51.507777,11.804463
0010272,"Zöberitz, Bahnhofstr.",51.508105,12.033824
0010275,"Zöberitz, Zum Rittergut",51.512019,12.040294
0010276,"Zörnitz, Zur Halde",51.566669,11.763383
0010277,"Zscherben, Schmiede",51.468373,11.872320
0010279,"Zwebendorf, Hohenthurmer Str.",51.500171,12.098553
0010280,"Zwintschöna (Dieskau), Eschengrund",51.446002,12.054335
0010392,"Querfurt, Hagebau",51.390963,11.609204
0010393,"Merseburg, Elisabethhöhe bzw. Am Wassertal",51.379524,11.968612
0010394,"Mücheln (Geiseltal), Goethstr.",51.297514,11.809618
0010395,"Stöbnitz, Eschenweg (Mücheln, Geiseltal)",51.322346,11.806645
0010396,"Mücheln (Geiseltal), Markt",51.301954,11.803320
0010397,"Mücheln (Geiseltal), Schützenhaus",51.300522,11.804165
0010403,"Merseburg, Süd, Häuerstr.",51.339711,11.988086
0010405,"Querfurt, Garagen",51.377172,11.614036
0010407,"Querfurt, Kaufhalle",51.376263,11.603167
0010408,"Merseburg, Süd, Geiseltalstr.",51.332940,11.983167
0010410,"Mücheln, Thomas-Müntzer-Str.",51.293066,11.803911
0010412,"Merseburg, Süd, Albert-Keller-Str.",51.333649,11.981104
0010413,"Stöbnitz, Wünscher Str. (Mücheln, Geiseltal)",51.326220,11.800697
0010414,"Merseburg, Süd, Benndorfer Str.",51.337559,11.987128
0010415,"Querfurt, Marktplatz",51.378886,11.597627
0010416,"Querfurt, Parkplatz",51.375009,11.596919
0010418,"Merseburg, Süd, ARAL-Tankstelle",51.343313,11.988550
0010419,"Merseburg, Süd, Hochhaus",51.331119,11.981226
0010420,"Querfurt, Schachtberg",51.381048,11.615205
0010422,"Merseburg, Brühl",51.354136,11.998488
0010423,"Merseburg, Geusaer Str.",51.347167,11.978794
0010424,"Stöbnitz, Gaststätte (Mücheln)",51.316842,11.808604
0010426,"Mücheln (Geiseltal), Branderodaer Str.",51.294620,11.802472
0010428,"Querfurt, Fichtenstr.",51.375959,11.586889
0010429,"Merseburg, Agentur für Arbeit/Hochschule",51.344936,11.972505
0010430,"Merseburg, Süd, Kötzschener Weg (Bus)",51.334836,11.984956
0010431,"St. Micheln, Kindergarten (Mücheln)",51.297813,11.788110
0010435,"Querfurt, Altenheim",51.375282,11.610079
0010436,"Merseburg, Freiimfelde, Kapelle",51.381038,11.974156
0010437,"Querfurt, Ahornweg",51.376864,11.609292
0010440,"Merseburg, Amtshäuser",51.359095,12.016132
0010637,"Beucha (Brandis), Bahnhof",51.323512,12.572524
0010642,"Falkenberg (b. Torgau)",51.613885,12.767274
0010643,"Hohenprießnitz (Zschepplin), Schule",51.533315,12.592581
0010644,"Glaucha, Elsteiche",51.540423,12.578606
0010647,"Eilenburg, Bahnhof",51.453076,12.636902
0010649,"Eilenburg, Gustav-Raute-Str.",51.457877,12.637803
0010653,"Bad Düben (Mulde), Waldkrankenhaus/Rehaklinik",51.598390,12.584639
0010654,"Wildschütz (Mockrehna), Dorfstr.",51.476554,12.853424
0010655,"Bad Düben (Mulde), Windmühlenweg",51.598314,12.587723
0010656,"Wildenhain (b. Eilenburg)",51.537136,12.803404
0010659,"Wöllnau (Doberschütz)",51.542572,12.703342
0010660,"Zipsendorf, Friedensplatz",51.046210,12.281412
0010661,"Zipsendorf, Werk",51.046915,12.291490
0010662,"Meuselwitz (Thür.), Abzweig Schnauderhainichen",51.053897,12.307266
0010663,"Bünauroda (Meuselwitz)",51.063498,12.313045
0010665,"Schnauderhainichen",51.057486,12.323987
0010667,"Meuselwitz (Thür.), Eisengießerei",51.036490,12.299907
0010668,"Auligk (Groitzsch)",51.107370,12.237055
0010669,"Groitzsch (b. Pegau), Hospitalstr.",51.155217,12.276637
0010671,"Kleinprießligk",51.114251,12.243122
0010672,"Saasdorf (Groitzsch)",51.130586,12.261001
0010673,"Gatzen, Gasthof (Groitzsch)",51.124167,12.254819
0010674,"Groitzsch (b. Pegau), Berthagrube",51.143355,12.269006
0010676,"Altengroitzsch (b. Pegau)",51.139033,12.266342
0010677,"Mockern (Saara), Gasthof",50.952531,12.427142
0010678,"Michelwitz (Groitzsch)",51.107175,12.282033
0010679,"Pautzsch (Groitzsch)",51.104016,12.269969
0010684,"Köhra, Leipziger Str. (Belgershain)",51.252296,12.565934
0010688,"Rückmarsdorf (Leipzig), Einkaufspassage",51.345800,12.267499
0010689,"Borsdorf (Sachsen), Heinrich-Heine-Str.",51.344266,12.539092
0010690,"Quesitz (Markranstädt), Hauptstr.",51.292313,12.206620
0010695,"Vogelgesang (Elsnig)",51.615606,12.911013
0010696,"Trossin, Dahlenberger Str.",51.619255,12.823884
0010698,"Wellaune (Bad Düben)",51.571570,12.556509
0010699,"Wellaune (Bad Düben), Siedlung",51.560196,12.546994
0010701,"Meuselwitz (Thür.), Georgenstr.",51.039804,12.299415
0010702,"Meuselwitz (Thür.), Busplatz",51.044398,12.299100
0010703,"Meuselwitz (Thür.), Lehrwerkstatt",51.038340,12.313003
0010704,"Breitenhain (Lucka)",51.082622,12.321979
0010705,"Meuselwitz (Thür.), Bebelstr.",51.040324,12.299766
0010706,"Lucka, Abzweig Nehmitz (Groitzsch)",51.100085,12.336456
0010708,"Meuselwitz (Thür.), Gießerei Luckstr.",51.068915,12.317015
0010709,"Neupoderschau",51.021547,12.295394
0010710,"Kitzen, Siedlung",51.225755,12.224370
0010711,"Kitzen, Am Teich",51.223194,12.223990
0010712,"Groß Schkorlopp (Kitzen)",51.243746,12.232534
0010713,"Klein Schkorlopp (Kitzen)",51.234406,12.236018
0010714,"Schkölen (Markranstädt)",51.264374,12.207368
0010715,"Thronitz (Markranstädt)",51.274781,12.207205
0010716,"Schkeitbar (Markranstädt)",51.253542,12.221644
0010717,"Räpitz (Markranstädt), Am Bahnhof",51.261486,12.213630
0010718,"Kitzen, Schulstr.",51.217537,12.222406
0010719,"Göhrenz (Markranstädt), Lindenallee",51.288744,12.259944
0010722,"Lehma, Hauptstr. (Wintersdorf)",51.036537,12.424986
0010724,"Gößnitz (Thür.), Schule",50.888237,12.439334
0010725,"Pfarrsdorf (Gößnitz)",50.894086,12.480387
0010726,"Frohburg, Str. des 3. Oktober",51.055185,12.552892
0010727,"Bocka (Windischleuba), Mittelstr.",51.005632,12.519511
0010728,"Scheidens (Kitzen)",51.206607,12.243371
0010729,"Löben, Teich (Kitzen)",51.212043,12.240289
0010730,"Werben (Kitzen), Südring",51.197546,12.231271
0010731,"Seegel (Kitzen)",51.201645,12.241075
0010732,"Werben (Kitzen), Lindners Gut",51.201741,12.223936
0010733,"Werben (Kitzen), Teich",51.195604,12.226727
0010735,"Thesau (Kitzen)",51.213664,12.223939
0010737,"Sittel (Kitzen)",51.208875,12.221185
0010738,"Zitzschen (Zwenkau), Teich",51.217681,12.264195
0010741,"Grünberg (b. Schmölln), Pappeln",50.854045,12.363313
0010742,"Zschaschelwitz, Teich",51.027465,12.457569
0010743,"Trebanz (Wintersdorf)",51.041709,12.435937
0010747,"Ehrenhain (Nobitz), Kurt-Pester-Platz",50.939261,12.510805
0010750,"Leipzig, Lipsiusstr.",51.330800,12.414010
0010751,"Tanna (Naundorf)",50.969210,12.252237
0010752,"Leipzig, Möckern, Slevogtstr.",51.371101,12.340498
0010754,"Großröda",50.995966,12.319143
0010755,"Dobraschütz (Naundorf), Wendeschleife",50.972107,12.281721
0010756,"Leipzig, Holsteinstr.",51.331100,12.411406
0010757,"Gößnitz (Thür.), Mittelstr.",50.888467,12.433038
0010758,"Leipzig, Liebigstr.",51.330502,12.392401
0010759,"Leipzig, Schulze-Boysen-Str.",51.332503,12.400601
0010760,"Monstab, Kreuzung",50.992234,12.352473
0010761,"Kleinbeucha (Bad Lausick)",51.157186,12.591133
0010762,"Leipzig, Fockestr.",51.320903,12.365804
0010763,"Hartha (b. Schmölln), Wendeschleife",50.938779,12.238741
0010764,"Leipzig, Erika-von-Brockdorff-Str.",51.369807,12.345504
0010765,"Schnauderhainichen, Str. der Einheit",51.056860,12.321659
0010767,"Leipzig, Michael-Kazmierczak-Str.",51.367303,12.372599
0010768,"Plottendorf (Treben)",51.054124,12.440353
0010769,"Treben, Schule",51.055209,12.449279
0010770,"Treben, Altenburger Str.",51.052433,12.453439
0010771,"Treben, Fockendorfer Wehr",51.047730,12.455285
0010772,"Kreutzen (Tegkwitz)",50.978232,12.325825
0010773,"Tegkwitz, Abzweig Breesen",50.961983,12.340012
0010774,"Kostitz, Siedlung (Starkenberg)",50.985557,12.303170
0010775,"Tegkwitz",50.979265,12.341596
0010776,"Wilchwitz (Nobitz)",50.989563,12.492591
0010782,"Bad Düben (Mulde), Wittenberger Str./Paul-Kaiser-Str.",51.608931,12.583998
0010785,"Altenburg (Thür.), Rudolf-Breitscheid-Str.",50.989563,12.428619
0010786,"Hartmannsdorf (Leipzig), Erikenstr.",51.261705,12.306412
0010787,"Leipzig, Karl-Heine-/Gießerstr.",51.329800,12.327302
0010788,"Leipzig, Diezmannstr.",51.320107,12.317803
0010789,"Leipzig, Adler",51.320303,12.330201
0010790,"Leipzig, Holbeinstr.",51.328101,12.346210
0010791,"Leipzig, Stieglitzstr.",51.323907,12.343809
0010792,"Leipzig, Knautnaundorf, Werkstr.",51.251606,12.262601
0010793,"Leipzig, Marschnerstr.",51.336508,12.357201
0010794,"Eisdorf (Kitzen)",51.224802,12.203740
0010795,"Leipzig, Klingerweg",51.332507,12.350607
0010796,"Leipzig, Kurt-Kresse-Str.",51.314406,12.315899
0010797,"Leipzig, Herrmann-Meyer-Str.",51.315401,12.310002
0010800,"Stünzhain (Altenburg)",50.960929,12.461891
0010801,"Nobitz, Schule",50.975481,12.486562
0010802,"Saara",50.932787,12.420908
0010803,"Oberleupten (Nobitz)",50.962714,12.486174
0010805,"Naundorf (b. Gößnitz), Abzweig Naundorf",50.901906,12.441721
0010806,"Wilchwitz, Tankstelle (Nobitz)",50.991404,12.483639
0010807,"Uhlmannsdorf (Ziegelheim)",50.931718,12.552912
0010810,"Leipzig, Siemensstr.",51.321802,12.326206
0010811,"Leipzig, Hauptbahnhof/Ostseite",51.343652,12.382332
0010812,"Gößnitz (Thür.), Umspannwerk",50.875681,12.435125
0010813,"Leipzig, Rödelstr.",51.318503,12.341005
0010814,"Leipzig, S-Bahnhof Plagwitz",51.328283,12.322772
0010815,"Leipzig, Zollschuppenst.",51.326959,12.324441
0010816,"Altenburg (Thür.), Feldstr./Dürerstr.",51.002862,12.437495
0010817,"Leipzig, Naumburger Str.",51.326501,12.327608
0010818,"Leipzig, Messegelände",51.396722,12.396585
0010819,"Rüdigsdorf (Kohren-Sahlis)",51.009486,12.600396
0010821,"Nitzschka (Schmölln), Industriegebiet H 2",50.887434,12.385025
0010822,"Altenburg (Thür.), Bartholomäikirche",50.986482,12.434916
0010823,"Leipzig, Georg-Herwegh-Str.",51.394894,12.383039
0010824,"Leipzig, S-Bahnhof Messe",51.396048,12.388830
0010825,"Narsdorf, Siedlung",51.014078,12.715811
0010826,"Beerwalde (Löbichau), Teich",50.878100,12.227122
0010827,"Leipzig, Rochlitzstr.",51.318800,12.347900
0010828,"Leipzig, Rennbahn",51.321200,12.361406
0010829,"Untschen, Abzweig Wildenbörten (Nöbdenitz)",50.888987,12.294706
0010830,"Starkenberg",50.985064,12.312609
0010831,"Posa, Wartehalle (Starkenberg)",50.996266,12.303818
0010832,"Rositz, Zuckerraffinerie",51.013111,12.348820
0010834,"Rositz, Werk",51.010200,12.379612
0010835,"Rositz, Zechauer Str.",51.017260,12.361208
0010836,"Meuselwitz (Thür.), Werk Phönix West",51.067684,12.266620
0010837,"Rositz, Zentrum",51.015533,12.364333
0010838,"Posa, Schule (Starkenberg)",50.995363,12.306162
0010839,"Großröda, Abzweig Kleinröda",51.006913,12.302523
0010842,"Durchwehna (Kossa)",51.621032,12.660590
0010844,"Thallwitz, Schule",51.428666,12.685654
0010847,"Eilenburg, Dr.-Külz-Ring",51.458137,12.634369
0010848,"Dommitzsch, Bahnhofstr.",51.636804,12.879296
0010849,"Dommitzsch, Torgauer Str.",51.636647,12.888373
0010856,"Leipzig, Bahnhof Paunsdorf",51.343502,12.445106
0010857,"Eilenburg, Ziegelstr.",51.463506,12.646485
0010860,"Leipzig, Knautnaundorf, Gewerbegebiet 2",51.256501,12.279499
0010861,"Hartmannsdorf (Leipzig), Gasthof",51.267401,12.309100
0010862,"Schelditz, Hohle (Rositz)",51.005114,12.380111
0010868,"Klitschmar, Bahnhof (Wiedemar)",51.507307,12.227543
0010869,"Klitschmar, Am Teich (Wiedemar)",51.498398,12.229794
0010870,"Kyhna, Hort",51.513570,12.262125
0010871,"Delitzsch, Landratsamt",51.517954,12.332220
0010872,"Rackwitz (b. Leipzig), Leipziger/Hauptstr.",51.435021,12.374713
0010873,"Rackwitz (b. Leipzig), Busbahnhof",51.439925,12.375852
0010874,"Kertitz (Delitzsch)",51.534025,12.311813
0010875,"Lemsel (Zschortau), Am Rittergut",51.464626,12.349217
0010876,"Kyhna, Schule",51.514642,12.260097
0010878,"Glesien (Schkeuditz), Schafsteich",51.445744,12.221987
0010879,"Bad Düben (Mulde), Wittenberger Str.",51.622528,12.586024
0010880,"Gruna (b. Eilenburg), Heideschänke",51.520392,12.655098
0010881,"Hainichen (Eilenburg), Dorfplatz",51.484307,12.614229
0010882,"Bad Düben (Mulde), Wittenberger Str./Freibad",51.617609,12.584552
0010885,"Eilenburg, Grenzstr.",51.455175,12.619654
0010886,"Gruna (b. Eilenburg), Gemeinde",51.529513,12.616486
0010888,"Hohenossig",51.444753,12.418009
0010890,"Hohenprießnitz (Zschepplin), Mitte",51.533028,12.596047
0010891,"Altenburg (Thür.), Pauritzer Platz",50.990067,12.439285
0010892,"Altenburg (Thür.), Gabelentzstr.",50.991964,12.442973
0010893,"Altenburg (Thür.), Roßplan",50.983535,12.432091
0010894,"Altenburg (Thür.), Großer Teich",50.982388,12.436209
0010895,"Altenburg (Thür.), Kanalstr./Bachstr.",50.991863,12.439389
0010896,"Altenburg (Thür.), Kanalstr.",50.992885,12.442215
0010897,"Altenburg (Thür.), Lindenau Str./Zeitzer Str.",50.987217,12.428887
0010898,"Altenburg (Thür.), Lindenaustr.",50.988450,12.433737
0010899,"Eilenburg, Nordring",51.461522,12.636538
0010900,"Bad Düben (Mulde), Paradeplatz",51.591349,12.588473
0010901,"Noitzsch, Wartehalle",51.527747,12.556088
0010903,"Eilenburg, Naherholung",51.474660,12.673410
0010904,"Neiden (Elsnig)",51.595668,12.946737
0010905,"Altenburg (Thür.), Zeitzer Str./Mehringstr.",50.992680,12.421681
0010907,"Altenburg (Thür.), Schmöllnsche Vorstadt",50.983616,12.428408
0010908,"Glesien (Schkeuditz), Siebelstr.",51.445923,12.232432
0010910,"Paschwitz (Doberschütz)",51.466109,12.720650
0010917,"Gärnitz (Markranstädt), Gasthof",51.280085,12.231101
0010918,"Seebenisch (Markranstädt), Mitte",51.274896,12.231124
0010919,"Kulkwitz (Markranstädt), Göhrenzer Str.",51.288229,12.239962
0010920,"Kulkwitz (Markranstädt), Kirche",51.283037,12.232628
0010922,"Kulkwitz (Markranstädt), Kraftwerk",51.294185,12.232350
0010923,"Erdmannshain, Sachsenklinik",51.290044,12.574239
0010924,"Markranstädt, Lausener Str.",51.297661,12.224678
0010925,"Seebenisch (Markranstädt), Am alten Bahnhof",51.271966,12.233040
0010926,"Räpitz (Markranstädt), Wiesenweg",51.258471,12.216687
0010928,"Grimma, Platz der Einheit",51.218113,12.723203
0010931,"Bubendorf (Frohburg)",51.078990,12.540399
0010935,"Leipzig, Gefrierzentrum",51.250003,12.274910
0010937,"Leipzig, Knautnaundorf, Rundkapellenweg",51.253908,12.271605
0010939,"Leipzig, Abzweig n. Hartmannsdorf",51.263401,12.292503
0010941,"Nenkersdorf (b. Leipzig)",51.086263,12.564114
0010942,"Schönau (b. Geithain), Wendestelle",51.099892,12.562164
0010943,"Radefeld, Friedhof (Schkeuditz)",51.423889,12.297421
0010944,"Hayna (Schkeuditz), Abzweig",51.428230,12.304825
0010945,"Radefeld, Milanstr.",51.420194,12.303799
0010946,"Freiroda, Hauptstr. (Schkeuditz)",51.423046,12.273975
0010949,"Zschortau, Neue Str.",51.481871,12.358647
0010950,"Schenkenberg (Delitzsch), Kirche",51.538477,12.313045
0010952,"Neuschladitz",51.432260,12.366008
0010953,"Görschlitz (Kossa), Weinberge",51.582307,12.628664
0010955,"Gniebitz (Trossin)",51.611512,12.783427
0010956,"Görschlitz (Kossa)",51.579000,12.646556
0010957,"Glaucha, Mühle",51.564514,12.563518
0010958,"Glaucha, Wartehalle",51.558889,12.572541
0010962,"Gräfendorf (b. Eilenburg)",51.530819,12.855517
0010963,"Altenburg (Thür.), Johannisstr.",50.986216,12.430523
0010964,"Altenburg (Thür.), Puschkinstr.",50.984555,12.426753
0010965,"Altenburg (Thür.), Hausweg",50.988730,12.446195
0010967,"Altenburg (Thür.), Zschernitzscher Str.",51.006186,12.429062
0010968,"Altenburg (Thür.), Münsaer Str.",50.984667,12.449513
0010969,"Altenburg (Thür.), Feldstr.",51.005331,12.434272
0010972,"Mölbitz (Doberschütz)",51.465726,12.747339
0010973,"Mockrehna, B87",51.506892,12.814499
0010974,"Mockrehna, Schule",51.506437,12.809418
0010975,"Bad Düben (Mulde), Lutherstr.",51.592521,12.583975
0010976,"Eilenburg, Einkaufszentrum",51.464915,12.675319
0010977,"Altenburg (Thür.), Geraer Str./Gymnasium",50.983905,12.420708
0010978,"Löbnitz (b. Delitzsch), Gasthof Goldener Stern",51.592272,12.464235
0010979,"Altenburg (Thür.), Geraer Str.",50.984009,12.424818
0010980,"Leipzig, Eutritzscher Zentrum",51.365203,12.385200
0010981,"Mörtitz (Doberschütz)",51.503460,12.643828
0010982,"Mörtitz (Doberschütz), Dorfplatz",51.497496,12.645052
0010983,"Leipzig, Bayerischer Bahnhof",51.330520,12.380920
0010986,"Altranstädt, Hirtenstr.",51.316376,12.176906
0010987,"Priesteblich (Markranstädt)",51.330836,12.205851
0010988,"Altranstädt, August-Bebel-Str.",51.314501,12.174438
0010989,"Altranstädt, Mühlweg",51.314701,12.181941
0010990,"Großlehna, Paul-Groh-Str.",51.306615,12.168485
0010991,"Großlehna, Gemeindeamt",51.312001,12.172127
0010992,"Großlehna, Ortseingang",51.303657,12.175410
0010993,"Großlehna, Bahnhof",51.303923,12.169275
0010994,"Dölzig (Schkeuditz), Holländische Mühle",51.348831,12.206060
0010995,"Günthersdorf (Leuna), Nova Eventis",51.345806,12.178843
